city,lat,lng,country,population,lat_rad,lng_rad,airport_id,own_airport
Tokyo,35.6897,139.6922,Japan,37977000.0,0.6229027740490203,2.438088829354423,"[2279, 2359, 10165]",1.0
Jakarta,-6.2146,106.8451,Indonesia,34540000.0,-0.1084652316944396,1.8647987846225935,"[3275, 3900, 6224]",1.0
Delhi,28.66,77.23,India,29617000.0,0.5002113636215748,1.3479177813152208,"[3091, 3093]",1.0
Mumbai,18.9667,72.8333,India,23355000.0,0.33103136323800847,1.271180890092786,[2997],1.0
Manila,14.5958,120.9772,Philippines,23088000.0,0.25474476696258835,2.111450459843684,[2397],1.0
Shanghai,31.1667,121.4667,China,22120000.0,0.5439615319813167,2.1199938465321964,"[3391, 3406]",1.0
São Paulo,-23.5504,-46.6339,Brazil,22046000.0,-0.41103202016167256,-0.8139150980457835,[2593],0.0
Seoul,37.5833,127.0,"Korea, South",21794000.0,0.6559523287647849,2.2165681500327987,6070,0.0
Mexico City,19.4333,-99.1333,Mexico,20996000.0,0.339175069527814,-1.7302024833672949,[1824],1.0
Guangzhou,23.1288,113.259,China,20902000.0,0.4036737120352645,1.9767424575162578,[3370],1.0
Beijing,39.905,116.3914,China,19433000.0,0.6964736380083372,2.031413151005728,"[3364, 6341, 10209, 13726]",1.0
Cairo,30.0561,31.2394,Egypt,19372000.0,0.5245779053086677,0.5452303863475165,"[1128, 1129, 11810]",1.0
New York,40.6943,-73.9249,United States,18713220.0,0.7102495217943284,-1.290232904207556,"[3697, 3797, 3993, 7729, 7767, 8123]",1.0
Kolkāta,22.5411,88.3378,India,17560000.0,0.3934164120212938,1.541785463968247,[3043],0.0
Moscow,55.7558,37.6178,Russia,17125000.0,0.9731222870834544,0.656554467356723,"[2985, 2988, 4029, 4360, 8661, 11986]",1.0
Bangkok,13.75,100.5167,Thailand,17066000.0,0.2399827721492203,1.7543473682393842,"[3157, 3885]",1.0
Buenos Aires,-34.5997,-58.3819,Argentina,16157000.0,-0.603878685202282,-1.0189563785700775,"[2442, 3988]",1.0
Shenzhen,22.535,114.054,China,15929000.0,0.3933099469369222,1.9906178250696127,[3374],1.0
Dhaka,23.7161,90.3961,Bangladesh,15443000.0,0.4139240307322272,1.5777095759620463,"[3075, 3076]",1.0
Lagos,6.45,3.4,Nigeria,15279000.0,0.11257373675363426,0.059341194567807204,[273],1.0
Istanbul,41.01,28.9603,Turkey,15154000.0,0.7157595262428745,0.5054525873653138,"[1701, 1719, 4317, 13696]",1.0
Ōsaka,34.6936,135.5019,Japan,14977000.0,0.6055175493699048,2.3649542977081044,[2334],0.0
Karachi,24.86,67.01,Pakistan,14835000.0,0.4338888520457903,1.1695451317614003,"[2206, 2213, 11911]",1.0
Bangalore,12.9699,77.598,India,13707000.0,0.22636745865441257,1.3543405929625598,"[3131, 9053, 10750]",1.0
Tehran,35.7,51.4167,Iran,13633000.0,0.6230825429619757,0.8973907055101684,[4330],1.0
Kinshasa,-4.3317,15.3139,Congo (Kinshasa),13528000.0,-0.07560242720863837,0.2672779763211596,"[1020, 1021]",1.0
Ho Chi Minh City,10.8167,106.6333,Vietnam,13312000.0,0.18878702920047066,1.8611021772668694,[3205],1.0
Los Angeles,34.1139,-118.4068,United States,12750807.0,0.5953998756960937,-2.066588516750422,"[3484, 8220]",1.0
Rio de Janeiro,-22.9083,-43.1964,Brazil,12272000.0,-0.399825261034617,-0.7539194050084785,"[10794, 12163]",1.0
Nanyang,32.9987,112.5292,China,12010000.0,0.5759359638778528,1.964005044635203,[6359],1.0
Chennai,13.0825,80.275,India,11324000.0,0.22833269939215817,1.4010630570384481,[3144],0.0
Chengdu,30.6636,104.0667,China,11309000.0,0.5351807805145332,1.8163065566851828,[3395],1.0
Lahore,31.5497,74.3436,Pakistan,11021000.0,0.550646143016455,1.2975405977856562,"[2207, 2208]",1.0
Paris,48.8566,2.3522,France,11020000.0,0.8527085313298616,0.041053634665410614,"[1380, 1382, 1386]",1.0
London,51.5072,-0.1275,United Kingdom,10979000.0,0.8989702284832233,-0.00222529479629277,"[492, 502, 503, 507, 548, 7722]",1.0
Linyi,35.0606,118.3425,China,10820000.0,0.6119229077247239,2.0654662700413895,[6385],1.0
Tianjin,39.1467,117.2056,China,10800000.0,0.6832388062904643,2.045623621775466,[3368],1.0
Shijiazhuang,38.0422,114.5086,China,10784600.0,0.6639616447021869,1.9985520918491788,[6347],1.0
Baoding,38.8671,115.4845,China,10700000.0,0.6783588657018881,2.0155847600193915,[6347],0.0
Zhoukou,33.625,114.6418,China,9901000.0,0.5868669609830933,2.0008768704128355,[3375],0.0
Lima,-12.05,-77.0333,Peru,9848000.0,-0.21031217486531673,-1.3444847186765478,[2789],1.0
Hyderābād,17.3667,78.4667,India,9746000.0,0.30310609520609927,1.3695022681746347,[3141],0.0
Bogotá,4.6126,-74.0705,Colombia,9464000.0,0.08050505707749044,-1.29277410359846,[2709],0.0
Weifang,36.7167,119.1,China,9373000.0,0.6408273054670021,2.0786871391252464,[6388],1.0
Nagoya,35.1167,136.9333,Japan,9113000.0,0.6129020374350928,2.3899369406211513,"[3942, 5997]",1.0
Wuhan,30.5872,114.2881,China,8962000.0,0.5338473489660096,1.9947036408485312,[3376],1.0
Heze,35.2333,115.4333,China,8750000.0,0.6149370913429181,2.0146911514423707,[6944],0.0
Ganzhou,25.8292,114.9336,China,8677600.0,0.4508045831561194,2.005969741170155,[6379],1.0
Tongshan,34.261,117.1859,China,8669000.0,0.5979672550257773,2.045279791912823,[4149],0.0
Chicago,41.8373,-87.6862,United States,8604203.0,0.7301986351446236,-1.5304128985622518,"[3747, 3818, 3830, 8593]",1.0
Handan,36.6116,114.4894,China,8499000.0,0.638992964423156,1.998216988632796,[8407],1.0
Luanda,-8.8383,13.2344,Angola,8417000.0,-0.15425743527901484,0.23098385452593756,[951],1.0
Fuyang,32.8986,115.8045,China,8360000.0,0.5741888892966065,2.0211698136257734,[7503],1.0
Kuala Lumpur,3.1478,101.6953,Malaysia,8285000.0,0.054939474194277506,1.7749178188033894,"[3304, 3408]",1.0
Jining,35.4,116.5667,China,8023000.0,0.6178465552059926,2.034472713184474,[6944],1.0
Dongguan,23.0475,113.7493,China,7981000.0,0.4022547593533931,1.985299806838786,[3374],0.0
Hanoi,21.0245,105.8412,Vietnam,7785000.0,0.3669467485855478,1.8472774242618224,"[3197, 3199]",1.0
Pune,18.5196,73.8553,India,7764000.0,0.3232279961523419,1.289018155048168,[3017],1.0
Chongqing,29.55,106.5069,China,7739000.0,0.5157447939643244,1.8588960810923485,[3393],1.0
Changchun,43.9,125.2,China,7674439.0,0.7661995416255106,2.1851522234969005,[4380],1.0
Zhumadian,32.9773,114.0253,China,7640000.0,0.575562463417926,1.9901169155742904,[6359],0.0
Ningbo,29.875,121.5492,China,7639000.0,0.5214171140333059,2.121433743165092,[3387],0.0
Onitsha,6.1667,6.7833,Nigeria,7635000.0,0.10762921898273431,0.11839091915053135,[9825],0.0
Nanjing,32.05,118.7667,China,7496000.0,0.5593780252641826,2.0728699567283493,[3388],1.0
Hefei,31.8639,117.2808,China,7457027.0,0.5561299675262212,2.0469361093729654,[3389],1.0
Ahmadābād,23.03,72.58,India,7410000.0,0.4019493267342941,1.2667599710974844,[2994],0.0
Hong Kong,22.305,114.185,Hong Kong,7347000.0,0.3892956896573352,1.9929042063897253,"[3077, 4390]",1.0
Khartoum,15.6031,32.5265,Sudan,7282000.0,0.2723254685179272,0.5676945191499356,[1175],1.0
Nantong,31.9829,120.8873,China,7282835.0,0.5582069093360944,2.109881408846141,[12053],0.0
Yancheng,33.3936,120.1339,China,7260240.0,0.5828282690939784,2.096732098261616,[6393],1.0
Foshan,23.0292,113.1056,China,7194311.0,0.40193536410027814,1.9740651224436983,[7457],1.0
Nanning,22.8192,108.315,China,7153300.0,0.39827017267109005,1.890453379297658,[3373],1.0
Hengyang,26.8968,112.5857,China,7148344.0,0.4694377182504108,1.9649911556625799,[10942],1.0
Xi’an,34.2667,108.9,China,7135000.0,0.5980667387931409,1.900663555421825,[7052],0.0
Shenyang,41.8039,123.4258,China,7105000.0,0.7296156951744575,2.154186591908017,"[4144, 12057]",1.0
Tangshan,39.6292,118.1742,China,7100000.0,0.6916600199313367,2.062528880910283,[3368],0.0
Shaoyang,27.2418,111.4725,China,7071000.0,0.4754591041697913,1.945562150429379,[13229],1.0
Changsha,28.1987,112.9709,China,7044118.0,0.49216015978212496,1.971714163941262,[14091],1.0
Santiago,-33.45,-70.6667,Chile,7007000.0,-0.5838126347921033,-1.233366586519077,"[2643, 2650, 2663]",1.0
Zhengzhou,34.7492,113.6605,China,7005000.0,0.6064879524340135,1.9837499544630148,[3375],1.0
Zhanjiang,21.1967,110.4031,China,6900000.0,0.36995220555748204,1.9268975994085515,[6357],1.0
Riyadh,24.65,46.71,Saudi Arabia,6881000.0,0.4302236606166022,0.8152432936065513,"[2082, 11902]",1.0
Cangzhou,38.3037,116.8452,China,6800000.0,0.668525680696152,2.0393334551512785,[3368],0.0
Dar es Salaam,-6.8,39.2833,Tanzania,6698000.0,-0.11868238913561441,0.6856229260486884,[1177],0.0
Maoming,21.6618,110.9178,China,6706000.0,0.3780697319085077,1.9358808090685664,[6357],0.0
Huanggang,30.45,114.875,China,6667000.0,0.5314527572322734,2.004946978228486,[3376],0.0
Xinyang,32.1264,114.0672,China,6634000.0,0.5607114568127062,1.9908482085308759,[3376],0.0
Shangrao,28.4419,117.9633,China,6579714.0,0.4964048005229752,2.058847981517827,[13472],1.0
Luoyang,34.6587,112.4245,China,6549941.0,0.6049084294609588,1.962177684908365,[4148],1.0
Bijie,27.3019,105.2863,China,6537498.0,0.47650804705023986,1.8375925922425058,[9025],1.0
Yantai,37.3997,121.2664,China,6516900.0,0.6527479042581233,2.1164979520404517,[3392],1.0
Quanzhou,24.9139,118.5858,China,6480000.0,0.4348295845126153,2.069712656111492,[6386],1.0
Hangzhou,30.25,120.1675,China,6446000.0,0.5279620987282847,2.0973185288902862,[3386],1.0
Miami,25.7839,-80.2102,United States,6445545.0,0.45001394900496594,-1.3999320836831557,"[3576, 3721, 3791]",1.0
Kunming,25.0433,102.7061,China,6250000.0,0.4370880405646959,1.7925596068825482,[3382],1.0
Nanchong,30.7991,106.0784,China,6183000.0,0.5375457016509856,1.8514173452475529,[6401],1.0
Zunyi,27.705,106.9336,China,6127009.0,0.48354346926502895,1.8663434010106084,"[9846, 13476]",1.0
Lu’an,31.7542,116.5078,China,6090000.0,0.5542153413367834,2.0334447142550496,[3389],0.0
Yichun,27.8041,114.383,China,6048700.0,0.48527309055375534,1.996359958308674,[9107],1.0
Taizhou,28.6583,121.4221,China,5968838.0,0.5001816930242909,2.119215429685807,[6384],0.0
Liaocheng,36.45,115.9833,China,5955300.0,0.6361725123519332,2.0242904623283393,[4108],0.0
Qujing,25.5102,103.8029,China,5855055.0,0.4452369828422575,1.8117023781184218,[3382],0.0
Xiangyang,32.0654,112.1531,China,5844000.0,0.5596468059689896,1.9574408613184524,[6360],0.0
Sūrat,21.17,72.83,India,5807000.0,0.3694862026471996,1.2711232942274702,[3022],0.0
Baghdad,33.35,44.4167,Iraq,5796000.0,0.5820673055401089,0.7752176578705654,[4130],1.0
Qingdao,36.1167,120.4,China,5775000.0,0.6303553299550361,2.101376419401173,[3390],1.0
Singapore,1.3,103.8,Singapore,5745000.0,0.022689280275926284,1.811651763570114,"[3315, 3316, 12004]",1.0
Dallas,32.7936,-96.7662,United States,5743938.0,0.5723562935820125,-1.6888887946433369,"[3502, 6948, 8188]",1.0
Changde,29.0397,111.6839,China,5717200.0,0.5068383787913974,1.949251776468095,[6352],1.0
Dazhou,31.2152,107.4947,China,5693000.0,0.544808016668534,1.8761364434435486,[6397],1.0
Suzhou,33.6333,116.9683,China,5690000.0,0.5870118233110088,2.0414819554604833,[9857],1.0
Philadelphia,40.0077,-75.1339,United States,5649300.0,0.6982660911501354,-1.3113339348641675,"[3750, 3752, 8504]",1.0
Jieyang,23.5533,116.3649,China,5634000.0,0.4110826347099804,2.0309506387539495,[4302],0.0
Nairobi,-1.2864,36.8172,Kenya,5545000.0,-0.022451915497655055,0.6425813613652563,"[1147, 1148, 4059]",1.0
Nangandao,35.2992,113.8851,China,5516000.0,0.6160872633199823,1.987669963962994,[3375],0.0
Ankara,39.93,32.85,Turkey,5503985.0,0.6969099703213358,0.5733406592801373,"[1681, 1682, 1683, 1684]",1.0
Tai’an,36.2001,117.0809,China,5499000.0,0.6318109345511993,2.043447196198229,[4108],0.0
Yulin,22.6293,110.1507,China,5487368.0,0.3949557924215528,1.922492388376518,[6368],1.0
Dezhou,37.4513,116.3105,China,5470000.0,0.6536484941521524,2.030001179640865,[4108],0.0
Houston,29.7863,-95.3889,United States,5464251.0,0.519869006986787,-1.6648503748556192,"[3550, 3566, 3572, 4065, 4226, 9225]",1.0
Atlanta,33.7627,-84.4224,United States,5449398.0,0.5892702793630895,-1.4734488424356609,"[3682, 7497, 7654, 7712, 8306]",1.0
Rangoon,16.8,96.15,Burma,5430000.0,0.2932153143350474,1.678134075792548,[3239],0.0
Toronto,43.7417,-79.3733,Canada,5429524.0,0.7634366854196036,-1.3853254231732153,"[82, 144, 193, 194]",1.0
Suihua,46.6384,126.9808,China,5420000.0,0.8139936378621233,2.2162330468164155,[3400],0.0
Washington,38.9047,-77.0163,United States,5379184.0,0.6790151095006379,-1.344188012703709,"[3520, 3714, 9772]",1.0
Qiqihar,47.3398,123.9512,China,5367003.0,0.8262353772356116,2.1633565517979956,[6413],1.0
Jinhua,29.1046,119.6494,China,5361572.0,0.5079710974759417,2.0882759780357034,[6394],0.0
Saint Petersburg,59.95,30.3167,Russia,5351935.0,1.0463248865706005,0.5291262333393649,[2948],0.0
Shantou,23.3735,116.6941,China,5319028.0,0.4079445327148946,2.036696262651515,[4302],1.0
Sydney,-33.865,151.2094,Australia,5312163.0,-0.5910557511878798,2.6391018899651137,"[3354, 3361]",1.0
Weinan,34.4996,109.4684,China,5300000.0,0.6021316106210357,1.9105840068901607,[7052],0.0
Suqian,33.9331,118.2831,China,5290000.0,0.5922443204084878,2.064429544465705,[4149],0.0
Guadalajara,20.6767,-103.3475,Mexico,5253000.0,0.36087649344711153,-1.8037541487048396,[1804],1.0
Suzhou,31.304,120.6164,China,5250000.0,0.546357869044305,2.1051533119024883,[9857],1.0
Fuzhou,26.0769,119.2917,China,5245000.0,0.4551277637133093,2.08203293530132,[3385],1.0
Zhaotong,27.3328,103.7144,China,5213521.0,0.47704735378910607,1.810157761730407,[6378],1.0
Pudong,31.2231,121.5397,China,5187200.0,0.5449458976794415,2.1212679368861522,[3391],0.0
Yongzhou,26.4515,111.5953,China,5180235.0,0.46166576709128004,1.947705414750828,[8845],1.0
Belo Horizonte,-19.8917,-43.9478,Brazil,5159000.0,-0.34717565881895607,-0.767033809007964,"[2528, 2537]",1.0
Zhangzhou,24.5093,117.6612,China,5140000.0,0.42776798235904623,2.053575341847552,[3383],0.0
Bozhou,33.8626,115.7742,China,5100000.0,0.5910138632858318,2.020640978862419,[7503],0.0
Melbourne,-37.8136,144.9631,Australia,5078193.0,-0.6599718220321278,2.530083388897792,"[3334, 3338, 3339]",1.0
Nanchang,28.6842,115.8872,China,5042565.0,0.5006337333005575,2.022613200917173,[3384],1.0
Xianyang,34.35,108.7167,China,5040000.0,0.5995205980600522,1.8974643669029194,[3379],0.0
Taizhou,32.4831,119.9,China,5031000.0,0.5669370462545701,2.092649773141201,[8876],0.0
Surabaya,-7.2458,112.7378,Indonesia,4975000.0,-0.12646306694100512,1.9676458014548632,[3928],1.0
Abidjan,5.3364,-4.0267,Côte D’Ivoire,4980000.0,0.0931377502034254,-0.07027917299005566,7593,0.0
Ji’an,27.1172,114.9793,China,4956600.0,0.47328442392180636,2.006767356638316,[6964],0.0
Mianyang,31.4669,104.7385,China,4945000.0,0.5492010103958037,1.828031678600081,[6400],1.0
Shaoxing,30.0,120.5833,China,4912239.0,0.5235987755982988,2.1045756079200784,[3386],0.0
Alexandria,31.2,29.9167,Egypt,4870000.0,0.5445427266222308,0.5221449163313876,"[1126, 3410]",1.0
Yuncheng,35.0304,110.998,China,4860000.0,0.6113958182906216,1.937280563128666,[6430],1.0
Pingdingshan,33.735,113.2999,China,4838000.0,0.5887868231602871,1.9774562971803233,[3375],0.0
Huai’an,33.5,119.1331,China,4799889.0,0.5846852994181004,2.079264843107657,[7898],0.0
Xinpu,34.5906,119.1801,China,4790000.0,0.6037198602403506,2.080085147856094,[6383],0.0
Guilin,25.2667,110.2833,China,4747963.0,0.4409871061136513,1.9248066949646623,[3372],1.0
Huaihua,27.5494,109.9592,China,4741948.0,0.4808277369489258,1.9191500828589487,[7519],0.0
Jiujiang,29.7048,116.0021,China,4728778.0,0.5184465636464116,2.024618584227714,[6381],1.0
Anqing,30.5,117.0333,China,4723000.0,0.5323254218582705,2.0426164194742795,[6427],1.0
Boston,42.3188,-71.0846,United States,4688346.0,0.7386023954929763,-1.2406603174631612,[3448],1.0
Huanglongsi,34.7936,114.3403,China,4676159.0,0.607262878621899,1.9956147027180724,[3375],0.0
Xiaoganzhan,30.9273,113.911,China,4665000.0,0.5397832137520423,1.9881220042392607,[3376],0.0
Changzhou,31.8122,119.9692,China,4592431.0,0.5552276323029401,2.0938575409835813,[4109],1.0
Barcelona,41.3825,2.1769,Spain,4588000.0,0.7222608777065535,0.03799407248666456,[1218],1.0
Chenzhou,25.7989,113.0267,China,4581778.0,0.4502757483927651,1.972688057663875,[10942],0.0
Wuxi,31.5667,120.2833,China,4580000.0,0.550942848989294,2.0993396201640953,[6390],1.0
Zibo,36.7831,118.0497,China,4530597.0,0.6419862040903261,2.06035594599155,[4108],0.0
Jiaxing,30.7522,120.75,China,4501657.0,0.5367271422318002,2.107485071783153,[3386],0.0
Dalian,38.9131,121.61,China,4480000.0,0.6791617171578055,2.122494903350304,[3404],1.0
Harbin,45.75,126.6333,China,4458000.0,0.7984881327874057,2.2101680276657354,[3400],1.0
Yangzhou,32.3912,119.4363,China,4459000.0,0.5653330886719873,2.0845566813997034,[8876],1.0
Yibin,28.7596,104.64,China,4456000.0,0.5019497115565612,1.8263125292868665,[4110],1.0
Jiangmen,22.5833,113.0833,China,4448871.0,0.39415294096563547,1.9736759140205036,[7457],0.0
Johannesburg,-26.2044,28.0416,South Africa,4434827.0,-0.45735305850960206,0.4894182475272419,"[803, 813, 820, 5603]",1.0
Meizhou,24.2998,116.1191,China,4378800.0,0.4241115175761181,2.0266606194525476,[6354],0.0
Chifeng,42.2663,118.9223,China,4376600.0,0.7376860976356794,2.075585689044453,[6342],1.0
Casablanca,33.5992,-7.62,Morocco,4370000.0,0.5864166660360788,-0.1329940890019679,[1074],1.0
Guiyang,26.5794,106.7078,China,4365000.0,0.46389804320458083,1.8624024475596053,[3394],1.0
Langfang,39.5196,116.7006,China,4358839.0,0.689747139071151,2.0368097090528945,[10209],0.0
Zhangjiakou,40.8108,114.8811,China,4345491.0,0.7122828303729019,2.0050534433128577,[10940],1.0
İzmir,38.4127,27.1384,Turkey,4320519.0,0.6704280895808259,0.47365443372322913,[1707],0.0
Linfen,36.0812,111.5087,China,4316610.0,0.629735738070578,1.946193959618601,[11545],0.0
Wenzhou,27.9991,120.6561,China,4310000.0,0.4886764825951443,2.10584620761553,[6392],1.0
Monterrey,25.6667,-100.3,Mexico,4295000.0,0.44796842312162855,-1.7505652397503124,"[1784, 1825]",1.0
Luzhou,28.8918,105.4409,China,4291000.0,0.5042570368276977,1.840290871266089,[6399],1.0
Jiangguanchi,34.0244,113.8201,China,4289000.0,0.5938378060155587,1.9865354999491978,[3375],0.0
Neijiang,29.5872,105.0635,China,4238000.0,0.5163940564460663,1.8337039986690624,[6399],0.0
Phoenix,33.5722,-112.0891,United States,4219697.0,0.5859454271380403,-1.956323850597176,"[3462, 3506, 8874]",1.0
Yanjiang,30.1256,104.6397,China,4217000.0,0.5257909091388037,1.8263072932991105,[3395],0.0
Yiyang,28.5833,112.3333,China,4174000.0,0.4988726960852952,1.960585944630546,[6352],0.0
Zhaoqing,23.047,112.465,China,4151700.0,0.40224603270713316,1.9628845432554227,[7457],0.0
Hengshui,37.7348,115.686,China,4150000.0,0.6585965025815562,2.0191015984621603,[6347],0.0
Guigang,23.0961,109.6092,China,4118808.0,0.40310298936986233,1.9130414304769687,[6356],0.0
Xiaoxita,30.7083,111.2803,China,4115000.0,0.5359609426901747,1.942207627607046,[6361],0.0
Xiamen,24.4797,118.0819,China,4110000.0,0.4272513649004559,2.0609179420106924,[3383],1.0
Chuzhou,32.3062,118.3115,China,4110000.0,0.5638495588077921,2.064925217973271,[3388],0.0
Fuzhou,27.9814,116.3577,China,4047200.0,0.48836755931754133,2.030824975047806,[3385],1.0
Amman,31.95,35.9333,Jordan,4007526.0,0.5576326960121882,0.6271543961068785,"[2170, 2171]",1.0
Jeddah,21.5428,39.1728,Saudi Arabia,3976000.0,0.3759927900986344,0.6836943372252348,"[2071, 2072]",1.0
Sialkot City,32.5,74.5333,Pakistan,3893672.0,0.5672320068981571,1.3008514873766897,[6776],0.0
Huizhou,23.1115,114.4152,China,3875000.0,0.40337177007466946,1.996921954327816,[7458],1.0
Qingyuan,23.6842,113.0507,China,3874000.0,0.413367270700841,1.9731069366843537,[3370],0.0
Zhuzhou,27.8407,113.1469,China,3855609.0,0.4859118810599853,1.974785943424772,[14091],0.0
Wuhu,31.334,118.3622,China,3842100.0,0.5468814678199032,2.0658100999040325,[12054],1.0
Hechi,23.0965,109.6091,China,3830000.0,0.4031099706868703,1.9130396851477167,[10363],1.0
Seattle,47.6211,-122.3244,United States,3789215.0,0.8311449884214717,-2.1349635355265515,"[3577, 3726]",1.0
Loudi,27.7378,111.9974,China,3785627.0,0.48411593725968316,1.9547233836730973,[14091],0.0
Binzhou,37.3806,118.0125,China,3779200.0,0.6524145463709924,2.059706683509808,[4145],0.0
Liuzhou,24.3181,109.4069,China,3758704.0,0.42443091282923306,1.909510629400184,[6356],1.0
Yokohama,35.4333,139.6333,Japan,3748781.0,0.6184277498469068,2.437060830424998,[2350],0.0
Baojishi,34.3609,107.1751,China,3738700.0,0.5997108389485196,1.8705583711541747,[8889],0.0
Guang’an,30.4673,106.6336,China,3723000.0,0.5317546991928684,1.8611074132546255,[6401],0.0
Hanzhong,33.0794,107.026,China,3700000.0,0.5773444445842122,1.867956085239451,[6364],1.0
Kabul,34.5328,69.1658,Afghanistan,3678034.0,0.6027110599326979,1.207170939775894,"[2050, 7036]",1.0
Zaozhuang,34.8667,117.55,China,3650000.0,0.608538714305107,2.051634535719334,[6385],0.0
Berlin,52.5167,13.3833,Germany,3644826.0,0.9165893272821061,0.23358264978215712,"[337, 343, 351]",1.0
Anshan,41.1066,122.9895,China,3645884.0,0.7174455143003011,2.146571720381566,[9844],1.0
Deyang,31.1289,104.395,China,3636000.0,0.5433017975240628,1.8220364726194802,[6400],0.0
Lanzhou,36.0617,103.8318,China,3616163.0,0.6293953988664391,1.8122067782722482,"[3378, 6431]",1.0
Chengde,40.9739,117.9322,China,3610000.0,0.7151294623829046,2.0583051841204565,[13478],1.0
San Francisco,37.7562,-122.443,United States,3592294.0,0.658970003041483,-2.137033496019417,[3469],1.0
Puyang,35.7639,115.03,China,3580000.0,0.6241978083540001,2.007652238569077,[8407],0.0
Suining,30.5098,105.5737,China,3556000.0,0.532496464124966,1.8426086685127376,[6401],0.0
Jiaozuo,35.229,113.2304,China,3540101.0,0.6148620421850823,1.9762432933501874,[4148],0.0
Bengbu,32.9354,117.3531,China,3525000.0,0.5748311704613405,2.0481979824221574,[12052],1.0
Montréal,45.5089,-73.5617,Canada,3519595.0,0.7942801439608473,-1.2838938683643129,[71],0.0
Detroit,42.3834,-83.1024,United States,3506126.0,0.7397298781897647,-1.4504104963093358,"[3645, 3737, 3809]",1.0
Baicheng,23.901,106.6194,China,3466758.0,0.4171511445191647,1.8608595765008422,[13470],1.0
Busan,35.1,129.0403,"Korea, South",3440484.0,0.6126105674500097,2.252178102761239,6070,0.0
Algiers,36.7764,3.0586,Algeria,3415811.0,0.6418692670304427,0.05338264050149857,[210],0.0
Qincheng,34.5809,105.7311,China,3400000.0,0.6035505633029071,1.8453558167553765,[8889],0.0
Taiyuan,37.8733,112.5425,China,3398000.0,0.6610137835955684,1.9642371734257185,[3369],1.0
Lucknow,26.847,80.947,India,3382000.0,0.46856854428291767,1.4127916696118499,[3105],1.0
Chaoyang,41.5757,120.4486,China,3370000.0,0.7256328538214064,2.102224649417642,[6772],1.0
Hechi,24.6928,108.085,China,3369251.0,0.4309706615364558,1.886439122018071,[10363],1.0
Leshan,29.5854,103.7575,China,3364000.0,0.5163626405195304,1.8109099986380164,[3395],0.0
Yulinshi,38.2655,109.7388,China,3328000.0,0.6678589649218902,1.9153033771875532,[6368],0.0
Siping,43.1715,124.3644,China,3300000.0,0.753484818024732,2.170568252267236,[4380],0.0
Madrid,40.4189,-3.6919,Spain,3266126.0,0.705442885034336,-0.06443581065437866,"[1224, 1229, 1245, 11878]",1.0
Jinan,36.6667,116.9833,China,3250000.0,0.6399546408410048,2.0417437548482824,[4108],1.0
Shiyan,32.6351,110.7755,China,3228000.0,0.5695899467176014,1.9333972055429784,[12048],1.0
Changzhi,36.1953,113.097,China,3230000.0,0.6317271587471036,1.9739150241280268,[6343],1.0
San Diego,32.8312,-117.1225,United States,3220118.0,0.5730125373807624,-2.0441732531670587,"[3594, 3731, 7659]",1.0
Faisalabad,31.418,73.079,Pakistan,3203846.0,0.5483475443915784,1.275469164064936,[2202],1.0
Santa Cruz,-17.7892,-63.1975,Bolivia,3151676.0,-0.3104801112957753,-1.1030044540291164,"[2771, 4247]",1.0
Bazhou,31.8576,106.7559,China,3134000.0,0.5560200117833456,1.8632419509298144,[6397],0.0
Zhongshan,22.5333,113.35,China,3121275.0,0.39328027633963825,1.9783307071355725,[3374],0.0
Zhenjiang,32.2109,119.4551,China,3113384.0,0.5621862600306415,2.0848848032990785,[4109],0.0
Ürümqi,43.825,87.6,China,3112559.0,0.764890544686515,1.5289084247470326,[3399],0.0
Tongliao,43.6172,122.264,China,3094600.0,0.7612637505008707,2.133909356658347,[6348],1.0
Heyuan,23.7503,114.6923,China,3093900.0,0.4145209333364092,2.0017582616850924,[7458],0.0
Tongren,27.7233,109.1885,China,3093204.0,0.4838628645181439,1.9056988303138287,[6963],1.0
Qinzhou,21.95,108.6167,China,3079721.0,0.3830997708127553,1.8957190376509248,[6351],0.0
Jaipur,26.9167,75.8667,India,3073350.0,0.4697850387715577,1.3241237076227819,[3098],1.0
Xinzhou,38.4178,112.7233,China,3067501.0,0.6705171013726775,1.967392728713324,[13494],1.0
Addis Ababa,9.0272,38.7369,Ethiopia,3041002.0,0.1575543622360321,0.6760864470157915,"[1107, 1108]",1.0
Giza,29.987,31.2118,Egypt,3021542.0,0.5233718827955396,0.5447486754739661,[11810],0.0
Meishan,30.0575,103.8381,China,3020000.0,0.5246023399181956,1.8123167340151238,[3395],0.0
Brasília,-15.7744,-48.0773,Brazil,3015268.0,-0.2753152175265935,-0.8391071804690698,[2531],0.0
Mashhad,36.3069,59.6042,Iran,3001184.0,0.6336749461923292,1.0402895380172041,[4331],1.0
Jinzhou,41.1144,121.1292,China,3000000.0,0.7175816499819567,2.114103360306715,[6412],1.0
Tieling,42.2841,123.8365,China,3000000.0,0.7379967662425343,2.161354659145958,[12057],0.0
Shaoguan,24.8011,113.5927,China,2997600.0,0.4328608531163657,1.9825666212301627,[3370],0.0
Shanwei,22.7664,115.3331,China,2990000.0,0.39734863882603705,2.012942331531872,[7458],0.0
Minneapolis,44.9635,-93.2678,United States,2977172.0,0.7847611182204705,-1.627830196091567,[3858],1.0
Kyiv,50.45,30.5236,Ukraine,2967000.0,0.8805186076311393,0.5327373195617412,[2944],0.0
Sanaa,15.35,44.2,Yemen,2957000.0,0.26790804018112957,0.7714355293814937,[3980],1.0
Quezon City,14.6333,121.0333,Philippines,2936116.0,0.25539926543208624,2.112429589554053,[2397],0.0
Dingxi,35.5806,104.6263,China,2930000.0,0.6209986198350944,1.8260734191793433,[6431],0.0
Salvador,-12.9708,-38.5108,Brazil,2921087.0,-0.22638316661768051,-0.6721402575770323,[2621],1.0
Incheon,37.4639,126.6486,"Korea, South",2913024.0,0.6538684056379037,2.2104350630412903,6070,0.0
Bursa,40.1833,29.0667,Turkey,2901396.0,0.7013308893166375,0.5073096176894358,[9395],1.0
Ningde,26.6667,119.5167,China,2910000.0,0.46542171564157186,2.085959926118307,[3385],0.0
Tampa,27.9942,-82.4451,United States,2908063.0,0.4885909614617966,-1.438938447135977,"[3646, 3789, 11153]",1.0
Daqing,46.5979,125.008,China,2904532.0,0.8132867795150658,2.1818011913330713,[9845],1.0
Birmingham,52.48,-1.9025,United Kingdom,2897303.0,0.9159487914466241,-0.03320488901919212,[469],1.0
Putian,25.4394,119.0103,China,2900000.0,0.44400128973184544,2.0771215787862074,[6386],0.0
Huzhou,30.8695,120.0958,China,2893542.0,0.5387744134443896,2.096067127816606,[9857],0.0
Wuzhou,23.4833,111.3167,China,2882200.0,0.4098609042335844,1.9428429274547718,[6744],1.0
Denver,39.7621,-104.8759,United States,2876625.0,0.6939795625072372,-1.830429760992321,"[3751, 4222, 11081]",1.0
Rome,41.8931,12.4828,Italy,2872800.0,0.7311725288672364,0.21786595986794816,"[1553, 1555, 1565]",1.0
La Paz,-16.4942,-68.1475,Bolivia,2867504.0,-0.2878780974824487,-1.1893982520028357,[2762],1.0
Pyongyang,39.03,125.73,"Korea, North",2863000.0,0.6812020070533868,2.194402468532471,2508,0.0
Kano,12.0,8.5167,Nigeria,2828861.0,0.20943951023931956,0.14864445640460106,[270],1.0
Taichung,24.15,120.6667,Taiwan,2803894.0,0.42149701435663056,2.1060312125162417,"[2268, 8055]",1.0
Omdurman,15.6835,32.4629,Sudan,2805396.0,0.2737287132365307,0.5665844897456672,[1175],0.0
Zigong,29.3498,104.7645,China,2800000.0,0.5122506448018317,1.8284854642055994,[4110],0.0
Qinhuangdao,39.9398,119.5881,China,2800000.0,0.6970810125880312,2.087206091204231,[6429],1.0
Mudanjiang,44.5861,129.5997,China,2790000.0,0.7781742456234438,2.2619414745968953,[3402],1.0
Huludao,40.7094,120.8378,China,2787000.0,0.7105130665113797,2.109017470866404,[14092],0.0
Kaohsiung,22.6167,120.3,Taiwan,2773533.0,0.39473588093580153,2.0996310901491784,[2264],1.0
Xiangtan,27.8431,112.9228,China,2748552.0,0.4859537689620332,1.9708746605710528,[14091],0.0
Guayaquil,-2.1833,-79.8833,Ecuador,2723665.0,-0.038105773558792196,-1.3942266023583862,[2673],1.0
Rizhao,35.4164,119.4331,China,2720000.0,0.6181327892033198,2.0845008308636395,[11713],1.0
Manchester,53.4794,-2.2453,United Kingdom,2705000.0,0.9333916119910555,-0.039187877695028676,"[478, 9860]",1.0
Cawnpore,26.4725,80.3311,India,2701324.0,0.4620322862341989,1.4020421867488169,[3101],0.0
Baotou,40.6562,109.8345,China,2700000.0,0.7095845513493185,1.916973657281712,[6346],1.0
Taipei,25.0478,121.5319,Taiwan,2684567.0,0.4371665803810357,2.1211318012044966,"[2275, 2276]",1.0
Nanping,26.6448,118.1728,China,2690000.0,0.4650394885353851,2.062504446300755,[11714],0.0
Longyan,25.0881,117.0244,China,2640000.0,0.4378699480695894,2.042461085170852,[7504],1.0
Ibadan,7.3964,3.9167,Nigeria,2628000.0,0.12909153279450858,0.06835931081286191,[266],1.0
Hohhot,40.8151,111.6629,China,2635000.0,0.7123578795307376,1.948885257325176,[6345],1.0
Chaozhou,23.67,116.63,China,2620000.0,0.41311943394705786,2.0355775066009865,[4302],0.0
Antananarivo,-18.9386,47.5214,Madagascar,2610000.0,-0.3305409257181981,0.8294048951572334,[918],1.0
Longba,33.535,105.349,China,2614000.0,0.5852961646562983,1.8386869136835062,[13471],0.0
Weihai,37.5,122.1,China,2596753.0,0.6544984694978736,2.131047016685076,[6389],1.0
Chattogram,22.335,91.8325,Bangladesh,2581643.0,0.3898192884329335,1.6027794853376927,[3069],0.0
Santo Domingo,18.4764,-69.8933,Dominican Republic,2581827.0,0.32247401391548036,-1.2198682100841527,"[1762, 7911]",1.0
Xuanzhou,30.9475,118.7518,China,2580000.0,0.5401357702609452,2.0726099026698024,[12054],0.0
Sanming,26.2658,117.6302,China,2580000.0,0.4584246906703266,2.053034289779434,[11714],1.0
Brooklyn,40.6501,-73.9496,United States,2559903.0,0.709478086264947,-1.2906640005327987,[3993],0.0
Medellín,6.2447,-75.5748,Colombia,2529403.0,0.10899057579928989,-1.3190290915362104,[2729],0.0
Brisbane,-27.4678,153.0281,Australia,2514184.0,-0.4794035482792985,2.6708441930711344,"[3317, 3320]",1.0
Baoshan,25.1211,99.169,China,2506491.0,0.43844590672274747,1.7308255659102567,[7505],1.0
Dubai,25.2697,55.3094,United Arab Emirates,2502715.0,0.4410394659912111,0.9653311373025516,"[2188, 8076]",1.0
Luohe,33.583,114.0109,China,2500000.0,0.5861339226972556,1.989865588162003,[3375],0.0
Qinbaling,35.7278,107.64,China,2500000.0,0.6235677444940301,1.8786724068466962,[6365],0.0
Mirzāpur,25.15,82.58,India,2496970.0,0.4389503068765739,1.4412928962969174,[3084],0.0
Guangyuan,32.4353,105.8398,China,2484122.0,0.5661027788721167,1.8472529896522945,[6398],1.0
Cali,3.44,-76.5197,Colombia,2471474.0,0.060039326268604934,-1.3355207076383049,[2715],1.0
Daegu,35.8667,128.6,"Korea, South",2461002.0,0.6259920068250502,2.2444934180647076,6070,0.0
Fortaleza,-3.7275,-38.5275,Brazil,2452185.0,-0.06505714786808864,-0.6724317275621153,[2559],1.0
Guatemala City,14.6099,-90.5252,Guatemala,2450212.0,0.25499085838711955,-1.5799627960263707,[1767],1.0
Yaoundé,3.8578,11.5181,Cameroon,2440462.0,0.06733131188343724,0.20102876857395888,[904],0.0
Douala,4.05,9.7,Cameroon,2446945.0,0.07068583470577035,0.16929693744344995,[897],1.0
Jilin,43.85,126.55,China,2396000.0,0.7653268769995135,2.208714168398824,[4380],0.0
Lianshan,40.7503,120.83,China,2426000.0,0.7112269061754454,2.108881335184748,[14092],0.0
Lincang,23.8864,100.0871,China,2429497.0,0.4168963264483735,1.7468494337728167,[7527],1.0
Antalya,36.9081,30.6956,Turkey,2426356.0,0.6441678656553191,0.5357392858751714,[1688],1.0
Tashkent,41.3,69.2667,Uzbekistan,2424100.0,0.7208209810736581,1.2089319769911562,"[2983, 11985]",1.0
Huangshi,30.2018,115.0326,China,2419000.0,0.5271208500288234,2.007697617129629,[3376],0.0
Bandung,-6.95,107.5667,Indonesia,2394873.0,-0.1213003830136059,1.8773930805049843,[3896],1.0
Nāgpur,21.1539,79.0831,India,2405665.0,0.36920520463762846,1.3802604776839276,[3015],0.0
Dandong,40.1167,124.3833,China,2400000.0,0.7001685000348092,2.170898119495863,[6433],1.0
Huainan,32.4831,117.0164,China,2409000.0,0.5669370462545701,2.042321458830693,[12052],0.0
Shangzhou,33.868,109.9244,China,2400000.0,0.5911081110654396,1.918542708279255,[7052],0.0
Bekasi,-6.2333,107.0,Indonesia,2381053.0,-0.10879160826456254,1.8675022996339325,[6224],0.0
Ghāziābād,28.6667,77.4167,India,2381452.0,0.5003283006814584,1.3511763110286943,[3091],0.0
Tijuana,32.525,-117.0333,Mexico,2384609.0,0.5676683392111557,-2.0426164194742795,[1847],1.0
Jiamusi,46.8081,130.3653,China,2360000.0,0.8169554616027578,2.2753037153501636,[6411],1.0
Yangjiang,21.8556,111.9627,China,2357000.0,0.38145217999887265,1.9541177544226551,[6355],0.0
Accra,5.6037,-0.187,Ghana,2291352.0,0.09780301529400624,-0.0032637657012293962,[248],1.0
Yuxi,24.3495,102.5432,China,2303518.0,0.4249789462143593,1.7897164655310493,[3382],0.0
Fushun,41.8708,123.8917,China,2300000.0,0.7307833204440418,2.162318080893059,[12057],0.0
Anshun,26.2456,105.934,China,2297612.0,0.4580721341614237,1.848897089807673,[9849],1.0
Vancouver,49.25,-123.1,Canada,2264823.0,0.8595746566072073,-2.1485003092050197,"[156, 4107, 5500, 12090, 13022]",1.0
Tangerang,-6.1783,106.6319,Indonesia,2237006.0,-0.10783167717596566,1.8610777426573415,[3895],1.0
Konya,37.8714,32.4847,Turkey,2232374.0,0.6609806223397805,0.566964971522602,[1691],1.0
Queens,40.7498,-73.7976,United States,2230722.0,0.7112181795291853,-1.2880111000697674,[3697],0.0
Yingkou,40.6653,122.2297,China,2220000.0,0.7097433763112502,2.133310708724913,[12056],1.0
Adana,37.0,35.325,Turkey,2220125.0,0.6457718232379019,0.616537558266997,"[1685, 1686]",1.0
Medan,3.6667,98.6667,Indonesia,2210625.0,0.06399598768287608,1.7220587770774893,"[3279, 9935]",1.0
Sanmenxia,34.7736,111.195,China,2213000.0,0.6069138127715002,1.9407188617550946,[6430],0.0
Indore,22.7206,75.8472,India,2201927.0,0.39654927802862366,1.323783368418643,[3008],1.0
Ma’anshan,31.7135,118.3605,China,2202899.0,0.5535049923312217,2.0657804293067485,[12054],0.0
Pingliang,35.5412,106.6819,China,2190000.0,0.6203109601098087,1.8619504072833386,[8971],0.0
Quzhou,28.9545,118.8763,China,2185000.0,0.5053513582686981,2.0747828375885353,[6382],1.0
Baku,40.3667,49.8352,Azerbaijan,2181800.0,0.704531823164795,0.8697883233898781,"[2922, 14087]",1.0
Gaoping,30.7804,106.13,China,2174000.0,0.5372193250808626,1.852317935141582,[6401],0.0
Huaibei,33.9562,116.789,China,2158000.0,0.5926474914656986,2.0383525801116575,[4149],0.0
Xining,36.6239,101.7787,China,2154000.0,0.6392076399211513,1.7763734233995527,[6366],1.0
Yan’an,36.5952,109.4863,China,2150000.0,0.6387067304258288,1.9108964208262675,[6367],0.0
Havana,23.1367,-82.3589,Cuba,2141652.0,0.4038115930461721,-1.437433973320758,[1909],1.0
Phnom Penh,11.5696,104.921,Cambodia,2129371.0,0.20192761313873595,1.8312169044849707,[3034],0.0
Fukuoka,33.5903,130.4019,Japan,2128000.0,0.5862613317326513,2.275942505856394,[2305],1.0
Mogadishu,2.0408,45.3425,Somalia,2120000.0,0.03561867937470028,0.7913759160855289,[5687],1.0
Jincheng,35.4906,112.8483,China,2120000.0,0.6194278235082995,1.969574390278317,[6343],0.0
Lishui,28.45,119.9167,China,2116957.0,0.4965461721923867,2.092941243126284,[6394],0.0
Qingyang,24.8141,118.5792,China,2111000.0,0.4330877459191249,2.06959746438086,[6365],1.0
Riverside,33.9381,-117.3948,United States,2107852.0,0.5923315868710876,-2.048925784720239,"[3799, 3815, 8445]",1.0
Baltimore,39.3051,-76.6144,United States,2106068.0,0.6860034078256233,-1.3371735344399436,"[3849, 9183]",1.0
Haiphong,20.8,106.6667,Vietnam,2103500.0,0.36302848441482055,1.8616851172370357,[6188],1.0
Las Vegas,36.2333,-115.2654,United States,2104198.0,0.6323903838628614,-2.011760743628272,"[3814, 3877, 4225, 6877]",1.0
Laibin,23.7333,109.2333,China,2099711.0,0.41422422736357023,1.906480737818722,[6356],0.0
Rawalpindi,33.6007,73.0679,Pakistan,2098231.0,0.5864428459748587,1.2752754325179647,[2223],0.0
Kumasi,6.6833,-1.6167,Ghana,2069350.0,0.11664558989853703,-0.028216738016992326,[5556],1.0
Portland,45.5372,-122.65,United States,2074775.0,0.7947740721391618,-2.1406463275710452,"[3720, 3862]",1.0
Vadodara,22.3,73.2,India,2065771.0,0.3892084231947355,1.2775810124598492,[3001],0.0
Perth,-31.9522,115.8589,Australia,2059484.0,-0.5576710932557322,2.022119272738858,"[3344, 3351, 6914]",1.0
Puning,23.2993,116.1586,China,2055552.0,0.4066494984099148,2.0273500245070855,[4302],0.0
San Antonio,29.4658,-98.5253,United States,2049293.0,0.5142752267341452,-1.7195908815151693,"[3621, 3727, 3757, 9795]",1.0
Haikou,20.02,110.32,China,2046189.0,0.3494149162492648,1.9254472308001442,[4120],1.0
Vishākhapatnam,17.7333,83.3167,India,2035922.0,0.3095044722439104,1.4541507368963595,[3066],0.0
Gaziantep,37.0667,37.3833,Turkey,2028563.0,0.6469359578489821,0.6524616702607962,[1689],1.0
Minsk,53.9022,27.5618,Belarus,2020600.0,0.9407708640684875,0.48104415777617315,"[2953, 6819, 13421]",1.0
St. Louis,38.6358,-90.2451,United States,2024074.0,0.6743219191420252,-1.5750741287915346,[3678],1.0
Bamako,12.6458,-7.9922,Mali,2009109.0,0.2207108465486989,-0.13949020447789082,[1044],1.0
Quito,-0.2186,-78.5097,Ecuador,2011388.0,-0.003815289744859604,-1.370252759752992,[2688],1.0
Pingxiang,27.6333,113.85,China,2001027.0,0.48229206819134907,1.987057353395544,[9107],0.0
Chongzuo,22.4167,107.3667,China,1994285.0,0.39124522243181287,1.8739024220009957,[3373],0.0
Şanlıurfa,37.1583,38.7917,Turkey,1985753.0,0.6485346794438089,0.6770428874458844,[5797],0.0
Kananga,-5.897,22.4488,Congo (Kinshasa),1971704.0,-0.10292206599010562,0.39180547312170305,[1042],1.0
Peshawar,34.0,71.5,Pakistan,1970042.0,0.5934119456780721,1.2479104151759457,[2219],1.0
Sapporo,43.0621,141.3544,Japan,1958756.0,0.7515754278230502,2.4670996921810726,"[2287, 5995]",1.0
Jixi,45.2937,130.965,China,1950000.0,0.7905241954105556,2.2857704548743736,[8417],1.0
Caracas,10.5,-66.9333,Venezuela,1943901.0,0.1832595714594046,-1.1682064642251206,"[2834, 2851, 11293]",1.0
Fuxin,42.0127,121.6486,China,1930000.0,0.7332599426526217,2.123168600441574,[6412],0.0
Leeds,53.7997,-1.5492,United Kingdom,1901934.0,0.9389819015851933,-0.02703864077189615,"[517, 9864]",1.0
Sacramento,38.5667,-121.4683,United States,1898019.0,0.673115896628897,-2.120021771800228,"[3434, 3663, 3684, 3817]",1.0
Blantyre,-15.7861,35.0058,Malawi,1895973.0,-0.27551942104907684,0.610966467294631,[1013],1.0
Tainan,22.9833,120.1833,Taiwan,1883831.0,0.40113425797361274,2.097594290912101,[2270],1.0
Bucharest,44.4,26.0833,Romania,1883425.0,0.7749261878854823,0.455239464785437,"[1650, 1657]",1.0
Wuwei,37.9278,102.6329,China,1890000.0,0.6619649880379053,1.7912820258700883,[11473],0.0
Bhopāl,23.25,77.4167,India,1883381.0,0.40578905108868163,1.3511763110286943,[3002],0.0
Curitiba,-25.4297,-49.2719,Brazil,1879355.0,-0.44383199279440205,-0.8599568837133941,"[2529, 2545]",1.0
Xiping,40.08,113.3,China,1873000.0,0.6995279641993273,1.9774580425095754,[6344],0.0
Asunción,-25.3,-57.6333,Paraguay,1870000.0,-0.4415683007545654,-1.0058908437896479,[2699],0.0
Saidu Sharif,34.75,72.3572,Pakistan,1860310.0,0.6065019150680295,1.2628713775240412,[2228],1.0
Vienna,48.2083,16.3731,Austria,1840573.0,0.8413935617891823,0.2857645037582836,[1613],1.0
Aleppo,36.2,37.15,Syria,1834093.0,0.6318091892219474,0.6483898171158934,[2235],1.0
Hamburg,53.55,10.0,Germany,1841179.0,0.9346238144429634,0.17453292519943295,"[342, 362]",1.0
Meru,0.05,37.65,Kenya,1833000.0,0.0008726646259971648,0.657116463375865,[8715],0.0
Brazzaville,-4.2667,15.2833,Congo (Brazzaville),1827000.0,-0.07446796319484206,0.2667439055700494,[883],1.0
Orlando,28.4772,-81.3369,United States,1822394.0,0.4970209017489292,-1.4195967083653758,"[3416, 3878, 13098]",1.0
Mersin,36.8,34.6167,Turkey,1814468.0,0.6422811647339133,0.6041753911751211,[1685],0.0
Almaty,43.25,76.9,Kazakhstan,1806833.0,0.7548549014875475,1.3421581947836396,[2908],0.0
Barranquilla,10.96,-74.8,Colombia,1798000.0,0.19128808601857852,-1.3055062804917585,[2710],1.0
Kyōto,35.0111,135.7669,Japan,1805000.0,0.6110589697449867,2.369579420225889,[2334],0.0
Manaus,-3.1,-60.0167,Brazil,1802014.0,-0.054105206811824215,-1.0474890211816807,"[2551, 2589]",1.0
Liaoyang,41.2643,123.1772,China,1800000.0,0.7201978985306962,2.149847703387559,[9844],0.0
Baiyin,36.5448,104.1766,China,1799000.0,0.6378270844828238,1.8182246735331247,[3378],0.0
San Jose,37.3019,-121.8486,United States,1798103.0,0.6510409722496728,-2.126659258945563,"[3748, 11312]",1.0
Warsaw,52.2167,21.0333,Poland,1790658.0,0.9113533395261231,0.3671003375597233,"[667, 679, 8414]",1.0
Shengli,37.45,118.4667,China,1790000.0,0.6536258048718765,2.0676339689723666,[4145],0.0
Lubumbashi,-11.6697,27.4581,Congo (Kinshasa),1786397.0,-0.2036746877199823,0.47923425134185504,[1038],0.0
Damascus,33.5131,36.2919,Syria,1754000.0,0.5849139375501117,0.6334131468045301,[2236],1.0
Shuyangzha,34.1299,118.7734,China,1770000.0,0.5956791283764127,2.072986893788233,[7898],0.0
Shangqiu,34.4504,115.65,China,1753000.0,0.6012729086290546,2.018473279931442,[6944],0.0
Eşfahān,32.6447,51.6675,Iran,1756126.0,0.5697574983257929,0.9017679912741702,[2122],0.0
Budapest,47.4983,19.0408,Hungary,1752286.0,0.8290017241000226,0.3323246522137363,"[1489, 11133]",1.0
Heihe,50.2458,127.4886,China,1750000.0,0.8769546452985669,2.225095828758043,[6410],1.0
Lusaka,-15.4167,28.2833,Zambia,1742979.0,-0.2690721747922098,0.4936367083293122,"[907, 11805]",1.0
Diyarbakır,37.9108,40.2367,Turkey,1732396.0,0.6616682820650663,0.7022628951372024,[1722],0.0
Chinchvad,18.6278,73.8131,India,1729320.0,0.32511644240299975,1.2882816261038266,[3017],0.0
Shuozhou,39.3408,112.4292,China,1714857.0,0.6866264903685853,1.9622597153832086,[13494],0.0
Vitória,-20.324,-40.366,Brazil,1704000.0,-0.35472071717532755,-0.704519605860031,[2638],0.0
Cleveland,41.4767,-81.6804,United States,1710093.0,0.7239049778619321,-1.4255919143459765,"[3486, 8544, 8793]",1.0
Pittsburgh,40.4396,-79.9762,United States,1703266.0,0.7058041681894989,-1.3958480132334892,"[3570, 7495]",1.0
Mecca,21.4225,39.8261,Saudi Arabia,1700000.0,0.37389315900848524,0.6950965732285136,[2071],0.0
Patna,25.61,85.1414,India,1684222.0,0.4469788214357478,1.4859977597575003,[3061],0.0
Mosul,36.3667,43.1167,Iraq,1694000.0,0.6347186530850218,0.7525283775946391,[7548],1.0
Austin,30.3004,-97.7522,United States,1687311.0,0.5288417446712899,-1.706097741068001,"[3673, 9790]",1.0
Sanzhou,30.82,108.4,China,1680000.0,0.5379104754646524,1.8919369091618534,[6403],0.0
Conakry,9.5092,-13.7122,Guinea,1667864.0,0.16596684923064478,-0.23932303769196644,[4162],1.0
Kampala,0.3136,32.5811,Uganda,1659600.0,0.005473352534254217,0.5686474689215245,[11140],1.0
Ecatepec,19.6097,-99.06,Mexico,1656107.0,0.34225383032833206,-1.728923157025583,[1824],0.0
Cincinnati,39.1413,-84.5061,United States,1662691.0,0.6831445585108565,-1.4749096830195803,"[3488, 3681]",1.0
Makassar,-5.1331,119.4136,Indonesia,1651146.0,-0.08958949583412093,2.084160491659501,[3240],0.0
Yushan,31.3867,120.9766,China,1651200.0,0.5478012563357042,2.111439987868172,[3391],0.0
Ludhiāna,30.9083,75.8486,India,1649000.0,0.5394516011941634,1.323807803028171,[3103],0.0
Newcastle,55.0077,-1.6578,United Kingdom,1650000.0,0.9600654789492848,-0.028934068339561993,[521],1.0
Depok,-6.394,106.8225,Indonesia,1631951.0,-0.11159635237251743,1.8644043402116428,[3900],0.0
Zhongli,24.965,121.2168,Taiwan,1632616.0,0.43572144776038435,2.1156322687314626,[8627],0.0
Kansas City,39.1239,-94.5541,United States,1636715.0,0.6828408712210094,-1.6502803662599705,"[3458, 4293]",1.0
Rabat,34.0253,-6.8361,Morocco,1628000.0,0.5938535139788267,-0.11931245299558436,[1072],1.0
Ouagadougou,12.3572,-1.5353,Burkina Faso,1626950.0,0.2156738263274433,-0.026796040005868944,[246],1.0
Davao,7.0667,125.6,Philippines,1632991.0,0.12333718225068328,2.192133540504878,[4090],1.0
Manhattan,40.7834,-73.9662,United States,1628706.0,0.7118046101578555,-1.2909537251886298,[4050],1.0
Semarang,-6.9667,110.4167,Indonesia,1621384.0,-0.12159185299868897,1.927134964186823,[3901],1.0
Yinchuan,38.4795,106.2254,China,1616000.0,0.671593969521158,1.8539829792479845,[4085],1.0
Multan,30.1978,71.4711,Pakistan,1606481.0,0.5270510368587437,1.2474060150221193,[2214],1.0
Caloocan City,14.65,120.9667,Philippines,1583978.0,0.2556907354171693,2.111267200272225,[2397],0.0
Harare,-17.8292,31.0522,Zimbabwe,1606000.0,-0.311178242996573,0.5419631299877832,"[1002, 1005]",1.0
Novosibirsk,55.0333,82.9167,Russia,1602915.0,0.9605122832377954,1.4471694198883824,"[4078, 4376, 9054]",1.0
Chengtangcun,35.0833,117.15,China,1603659.0,0.6123190974649266,2.0446532187113573,[6944],0.0
Āgra,27.18,78.02,India,1585705.0,0.4743804906920588,1.3617058824059758,[3079],0.0
Karaj,35.8327,50.9915,Iran,1592492.0,0.6253985948793722,0.8899695655306886,[11905],1.0
Indianapolis,39.7771,-86.1458,United States,1588961.0,0.6942413618950364,-1.503527846764531,"[3585, 8409]",1.0
Jingdezhen,29.2942,117.2036,China,1587477.0,0.5112802417377229,2.045588715190426,[6380],1.0
Puebla,19.0333,-98.1833,Mexico,1576259.0,0.33219375251983674,-1.7136218554733487,[1831],1.0
Kalyān,19.2502,73.1602,India,1576614.0,0.33597937166741243,1.2768863714175556,[2997],0.0
Madurai,9.9197,78.1194,India,1561129.0,0.1731314258100815,1.3634407396824582,[3142],1.0
Gujranwala,32.15,74.1833,Pakistan,1569090.0,0.5611233545161769,1.2947428349947094,[6776],0.0
Benxi,41.292,123.761,China,1567000.0,0.7206813547334986,2.160036935560702,[4144],0.0
Jamshedpur,22.8,86.1833,India,1558000.0,0.39793506945470714,1.504182345234029,[3052],1.0
Zhuhai,22.2769,113.5678,China,1562000.0,0.3888052521375248,1.9821320342464164,[6355],1.0
Recife,-8.0539,-34.8808,Brazil,1555039.0,-0.1405670726263713,-0.6087848057296381,[2610],1.0
Columbus,39.9862,-82.985,United States,1562009.0,0.6978908453609566,-1.4483614797674944,"[3674, 3759, 4255, 7511, 9403, 11816, 11847, 12469]",1.0
Tabrīz,38.0833,46.2833,Iran,1558693.0,0.6646789750247565,0.8077959736882915,[2162],0.0
Santiago,19.5,-70.67,Dominican Republic,1550753.0,0.34033920413889424,-1.2334241823843928,[1764],1.0
Maracaibo,10.6333,-71.6333,Venezuela,1551539.0,0.18558609535231305,-1.2502369390688541,"[2823, 2848]",1.0
Beihai,21.4667,109.1,China,1539251.0,0.3746645945378667,1.9041542139258134,[6351],1.0
Shuangyashan,46.6388,131.1545,China,1530000.0,0.8140006191791315,2.289077853806903,[6411],0.0
Kōbe,34.6913,135.183,Japan,1522944.0,0.6054774067971088,2.3593884427234944,[3943],0.0
Charlotte,35.208,-80.8304,United States,1512923.0,0.6144955230421635,-1.4107566157040246,[3876],1.0
Yucheng,29.9888,103.0007,China,1512000.0,0.5234032987220755,1.7977013468589234,[3395],0.0
Changshu,31.65,120.7333,China,1510100.0,0.5523967082562052,2.1071936017980697,[6390],0.0
Ximeicun,24.9633,118.3811,China,1508000.0,0.4356917771631005,2.0661399671326595,[6386],0.0
Jianguang,28.1958,115.7833,China,1507402.0,0.49210954523381717,2.0207998038243504,[3384],0.0
Gwangju,35.1667,126.9167,"Korea, South",1501557.0,0.6137747020610899,2.215114290765887,6070,0.0
Xushan,30.1697,121.2665,China,1502000.0,0.5265605993389332,2.1164996973697034,[3387],0.0
Guiping,23.4,110.0833,China,1496904.0,0.40840704496667307,1.9213160364606736,[6356],0.0
Nāsik,20.0,73.7833,India,1486053.0,0.3490658503988659,1.287761517986732,[3016],0.0
Porto Alegre,-30.0328,-51.23,Brazil,1484941.0,-0.5241712435929531,-0.894132175796695,"[2542, 2599]",1.0
Zhangjiajie,29.1255,110.4844,China,1486000.0,0.5083358712896084,1.9283165520904229,[6353],0.0
Valencia,10.1667,-68.0,Venezuela,1484430.0,0.1774423890625075,-1.1868238913561442,[2868],1.0
Virginia Beach,36.7335,-76.0435,United States,1478868.0,0.6411205207813371,-1.327209449740308,[3870],0.0
Daejeon,36.351,127.385,"Korea, South",1475221.0,0.6344446363924587,2.223287667652977,6070,0.0
Munich,48.1372,11.5755,Germany,1471508.0,0.8401526326910144,0.20203058756460363,[346],1.0
Yekaterinburg,56.8356,60.6128,Russia,1468833.0,0.9919683523464892,1.057892928852819,"[2975, 7485]",1.0
Auckland,-36.85,174.7833,New Zealand,1467800.0,-0.6431538293599105,3.0505440625010047,[2006],1.0
Yunfu,22.9242,112.0353,China,1470000.0,0.4001027683856841,1.9553848634596032,[6744],0.0
Huangshan,29.7132,118.3151,China,1470000.0,0.5185931713035792,2.064988049826343,"[6387, 13257]",1.0
Huazhou,32.6832,112.079,China,1468061.0,0.5704294500878107,1.9561475723427244,[12047],0.0
Shīrāz,29.61,52.5425,Iran,1460665.0,0.516791991515521,0.9170396222291205,[2157],0.0
León de los Aldama,21.1167,-101.6833,Mexico,1454793.0,0.3685559421558866,-1.7747083792931502,[1815],0.0
Pizhou,34.3422,118.0097,China,1458038.0,0.5993844623783966,2.0596578142907522,[4149],0.0
Palembang,-2.9833,104.7644,Indonesia,1452456.0,-0.05206840757474683,1.8284837188763472,[3289],1.0
Kharkiv,50.0,36.2292,Ukraine,1446107.0,0.8726646259971648,0.6323188253635296,[6105],0.0
Kawanakajima,35.53,139.705,Japan,1437266.0,0.6201154832335853,2.4383122314986783,[2359],0.0
Lianjiang,21.6146,110.2794,China,1443099.0,0.37724593650156635,1.9247386271238345,[6357],0.0
Chizhou,30.6583,117.4849,China,1430000.0,0.5350882780641776,2.050498326376286,[9843],1.0
Leizhou,20.9147,110.0806,China,1427664.0,0.36503037706685804,1.92126891257087,[6357],0.0
Guyuan,36.008,106.2782,China,1426000.0,0.6284581570581182,1.8549045130930375,[8971],1.0
Rui’an,27.778,120.6526,China,1424667.0,0.4848175596189848,2.1057851210917105,[6392],0.0
Birstall,52.6736,-1.12,United Kingdom,1424216.0,0.9193277488784852,-0.019547687622336492,[471],0.0
Muscat,23.6139,58.5922,Oman,1421409.0,0.412140304236689,1.0226268059870216,[2194],1.0
Hebi,35.7497,114.2887,China,1419000.0,0.6239499716002168,1.9947141128240433,[8407],0.0
Jingling,30.6667,113.1667,China,1418913.0,0.535234885721345,1.9751315186166671,[3376],0.0
Bronx,40.8501,-73.8662,United States,1418207.0,0.7129687447689356,-1.2892083959366356,[3697],0.0
The Hague,52.08,4.27,Netherlands,1406000.0,0.9089674744386468,0.07452555906015787,[594],0.0
Owerri,5.4833,7.0333,Nigeria,1401873.0,0.09570163887460507,0.12275424228051718,[6730],0.0
Sharjah,25.3575,55.3919,United Arab Emirates,1400000.0,0.44257186507446217,0.966771033935447,[2191],1.0
Farīdābād,28.4333,77.3167,India,1394000.0,0.49625470220730367,1.3494309817766998,[3091],0.0
Ulaanbaatar,47.9203,106.9172,Mongolia,1396288.0,0.8363670135434387,1.8660571670132813,[3380],0.0
Goiânia,-16.6789,-49.2539,Brazil,1393575.0,-0.2911017206108822,-0.8596427244480351,[2562],0.0
Belém,-1.4558,-48.5039,Brazil,1393399.0,-0.02540850325053345,-0.8465527550580776,[2573],0.0
Kayseri,38.7333,35.4833,Turkey,1389680.0,0.6760236151627197,0.619300414472904,[1696],1.0
Yueqing,28.1188,120.9621,China,1389332.0,0.49076564170978154,2.111186915126633,[6392],0.0
Belgrade,44.8167,20.4667,Serbia,1378682.0,0.7821989748785426,0.35721130201792345,[1739],1.0
Pingdu,36.7833,119.9556,China,1378900.0,0.6419896947488302,2.09362017620531,[3390],0.0
Aurangābād,19.88,75.32,India,1371330.0,0.3469714552964727,1.314581992602129,[2996],0.0
Yutan,28.3147,112.554,China,1368117.0,0.4941847417144384,1.9644378862896976,[14091],0.0
Wenling,28.3797,121.3718,China,1366794.0,0.49531920572823473,2.1183375290720536,[6384],0.0
Islamabad,33.6989,73.0369,Pakistan,1365000.0,0.5881567593003172,1.2747343804498465,"[2223, 13760]",1.0
Milwaukee,43.0642,-87.9673,United States,1365787.0,0.751612079737342,-1.5353190190896078,"[3717, 7839]",1.0
Milan,45.4669,9.19,Italy,1351562.0,0.7935471056750099,0.16039575825827887,[1529],1.0
Sofia,42.6975,23.3241,Bulgaria,1355142.0,0.7452119573702788,0.40708234006440946,[1194],1.0
Adelaide,-34.9289,138.6011,Australia,1345777.0,-0.6096243090998473,2.4190455418859127,"[3341, 3350]",1.0
Samsun,41.2867,36.33,Turkey,1335716.0,0.720588852283143,0.6340781172495399,[5803],1.0
Rājkot,22.2969,70.7984,India,1335397.0,0.38915431798792366,1.2356651851439535,[3019],0.0
Khulna,22.8167,89.55,Bangladesh,1311100.0,0.3982265394397902,1.5629423451609221,[3071],0.0
Córdoba,-31.4167,-64.1833,Argentina,1329604.0,-0.5483248551113025,-1.1202099097952765,[2443],0.0
Guarulhos,-23.4667,-46.5333,Brazil,1324781.0,-0.4095711795777533,-0.8121592968182773,[2564],0.0
Juárez,31.7386,-106.487,Mexico,1321004.0,0.5539430699734723,-1.8585487605712017,[1796],0.0
Prague,50.0833,14.4167,Czechia,1324277.0,0.8741184852640761,0.25161888227226653,2010,0.0
Montevideo,-34.8667,-56.1667,Uruguay,1319108.0,-0.608538714305107,-0.980293844979899,"[2813, 2816]",1.0
Mbuji-Mayi,-6.1209,23.5967,Congo (Kinshasa),1295000.0,-0.10682985818532091,0.41184010760534595,[1043],0.0
Fuqing,25.7232,119.3735,China,1316000.0,0.4489545341490054,2.083460614629451,[3385],0.0
Xintai,35.91,117.78,China,1315942.0,0.6267477343911637,2.0556487929989213,[6385],0.0
Doha,25.3,51.5333,Qatar,1312947.0,0.4415683007545654,0.8994257594179937,"[2241, 6833, 11051]",1.0
Saitama,35.8617,139.6453,Japan,1307931.0,0.6259047403624505,2.4372702699352375,[2353],0.0
Hiroshima,34.3853,132.4553,Japan,1306589.0,0.6001366992860062,2.311781096716845,"[2326, 8469]",1.0
Meerut,28.99,77.7,India,1305429.0,0.5059709501531561,1.356120828799594,[3091],0.0
Yushu,44.8249,126.5451,China,1304436.0,0.7823420918772063,2.2086286472654764,[7894],1.0
Rongcheng,26.2312,104.0966,China,1302891.0,0.4578208067491366,1.816828410131529,[10937],0.0
Yangquan,37.8576,113.5762,China,1300000.0,0.6607397669030053,1.9822786419035838,[3369],0.0
Haicheng,40.8523,122.7474,China,1293877.0,0.7130071420124795,2.1423462782624876,[9844],0.0
Gaozhou,21.9392,110.8461,China,1288665.0,0.38291127525353996,1.9346294079948867,[6357],0.0
Yingtan,28.2333,117.0,China,1288615.0,0.49276404370331506,2.0420352248333655,[13472],0.0
Huaiyin,33.58,119.03,China,1264000.0,0.5860815628196958,2.0774654086488504,[7898],0.0
Wuzhong,37.9874,106.1919,China,1284000.0,0.663005204272094,1.8533982939485665,[4085],0.0
Jabalpur,23.1667,79.9333,India,1267564.0,0.4043351918217703,1.3950992669843834,[3009],1.0
Thāne,19.18,72.9633,India,1261517.0,0.3347541505325124,1.2734498181203786,[2997],0.0
Zhangye,38.9355,100.4553,China,1270000.0,0.6795526709102522,1.7532757360786597,[9770],1.0
Rucheng,32.3852,120.5634,China,1267066.0,0.5652283689168676,2.1042282873989318,[12053],0.0
Nizhniy Novgorod,56.3269,44.0075,Russia,1264075.0,0.983089862441594,0.7680757705714045,[4274],1.0
Comayagüela,14.0833,-87.2167,Honduras,1250000.0,0.24579995454611742,-1.5222185777241384,[1776],0.0
Yangshe,31.8775,120.5512,China,1253100.0,0.5563673323044924,2.104015357230188,[12053],0.0
Shaoyang,32.9387,119.8404,China,1253548.0,0.5748887663266562,2.0916095569070126,[13229],1.0
Dhanbād,23.7928,86.435,India,1246000.0,0.4152626982685068,1.5085753389612988,[3045],0.0
Yichun,47.7235,128.8893,China,1250000.0,0.8329322055755138,2.2495426555907274,[9107],1.0
Laiwu,36.1833,117.6667,China,1248636.0,0.6315177192368643,2.053671334956412,[4108],0.0
Kazan,55.7908,49.1144,Russia,1243500.0,0.9737331523216524,0.8572079901415031,"[2990, 11991]",1.0
Dayan,26.8808,100.2208,China,1244769.0,0.4691584655700918,1.749182938982733,[4033],0.0
Suwon,37.2858,127.01,"Korea, South",1234300.0,0.6507599742401018,2.216742682957998,6070,0.0
Jiangyin,31.9087,120.2653,China,1241045.0,0.5569118750311146,2.099025460898736,[12053],0.0
Yongcheng,33.9317,116.4459,China,1240382.0,0.5922198857989599,2.032364355448065,[4149],0.0
Calgary,51.05,-114.0667,Canada,1239220.0,0.8909905831431052,-1.9908394818846158,"[178, 8031]",1.0
Cần Thơ,10.0333,105.7833,Vietnam,1237300.0,0.17511411984034708,1.8462668786249175,[6191],0.0
Abuja,9.0556,7.4914,Nigeria,1235880.0,0.15805003574359852,0.1307495955839032,[260],1.0
Yiwu,29.3081,120.0698,China,1234015.0,0.5115228425037501,2.0956133422110876,[6394],1.0
Mandalay,21.9769,96.0869,Burma,1225546.0,0.3835692643815418,1.6770327730345393,[3222],1.0
Beidao,34.6,105.92,China,1225000.0,0.6038839211900381,1.8486527437123939,[8889],0.0
Al Başrah,30.4889,47.81,Iraq,1225793.0,0.5321316903112991,0.834441915378489,[2234],0.0
Shuangshui,26.5944,104.8333,China,1221000.0,0.46415984259237997,1.8296862507309715,[10937],0.0
Sevilla,37.3828,-5.9731,Spain,1212045.0,0.6524529436145363,-0.10425026155087329,"[1232, 1253, 9484]",1.0
Vila Velha,3.2167,-51.2167,Brazil,1209091.0,0.0561420060489016,-0.8939000470061799,[2598],0.0
Allahābād,25.455,81.84,India,1201000.0,0.44427356109515653,1.4283774598321595,[3080],0.0
Vārānasi,25.3189,83.0128,India,1198491.0,0.4418981679831923,1.4488466812995489,[3084],0.0
Tunis,36.8008,10.18,Tunisia,1200000.0,0.6422951273679293,0.17767451785302274,[287],1.0
Chelyabinsk,55.15,61.4,Russia,1202371.0,0.9625490824748727,1.0716321607245183,[2968],1.0
Mombasa,-4.05,39.6667,Kenya,1200000.0,-0.07068583470577035,0.6923145184008347,[1145],1.0
Providence,41.823,-71.4187,United States,1203230.0,0.7299490530615884,-1.2464914624940742,[3641],1.0
Qom,34.6461,50.8789,Iran,1201158.0,0.6046885179752074,0.888004324792943,[2127],0.0
Maiduguri,11.8333,13.15,Nigeria,1197497.0,0.206530046376245,0.22951079663725435,[271],1.0
Maputo,-25.9153,32.5764,Mozambique,1191613.0,-0.4523073116420865,0.5685654384466807,[979],1.0
Rosario,-32.9575,-60.6394,Argentina,1193605.0,-0.5752168882260312,-1.0583571864338495,[2440],1.0
Benin City,6.3176,5.6145,Nigeria,1190000.0,0.11026292082399376,0.09799151085322162,[262],0.0
Xinyu,27.795,114.9242,China,1186700.0,0.4851142655918239,2.005805680220467,[9107],0.0
Ahvāz,31.3203,48.6692,Iran,1184788.0,0.54664235771238,0.8494377843116242,[2104],0.0
Dublin,53.3425,-6.2658,Ireland,1173179.0,0.9310022562450753,-0.1093588402714607,[599],1.0
Jacksonville,30.3322,-81.6749,United States,1181496.0,0.529396759373424,-1.4254959212371165,"[3479, 3703, 3707, 3712, 7496, 11826]",1.0
Medina,24.4667,39.6,Saudi Arabia,1180770.0,0.4270244720976966,0.6911503837897546,[2074],0.0
Srīnagar,34.0911,74.8061,India,1180570.0,0.5950019406266388,1.3056127455761302,[3112],0.0
Omsk,54.9667,73.3833,Russia,1178391.0,0.9593498939559671,1.280780200978755,"[2958, 11978]",1.0
Huazhou,21.654,110.6294,China,1178809.0,0.37793359622685213,1.930847279505815,[6357],0.0
Cilacap,-7.7167,109.017,Indonesia,1174964.0,-0.13468182238864643,1.9027055906466581,[3899],1.0
Xiantao,30.3833,113.4,China,1175085.0,0.5302886226211931,1.9792033717615698,[3376],0.0
Bandar Lampung,-5.4294,105.2625,Indonesia,1166761.0,-0.09476090640778013,1.8371772038805312,[6223],0.0
Samara,53.1833,50.1167,Russia,1169719.0,0.9282236920759003,0.8747014252342422,"[2993, 11995]",1.0
Guankou,28.1417,113.625,China,1168056.0,0.49116532210848823,1.983130362578557,[3371],0.0
Ulsan,35.55,129.3167,"Korea, South",1166033.0,0.6204645490839841,2.257002192813751,6070,0.0
Dingzhou,38.5158,114.9845,China,1165182.0,0.6722275240396319,2.00685811375942,[6347],0.0
Campinas,-22.9009,-47.0573,Brazil,1164098.0,-0.3996961066699694,-0.8213048220987276,"[2578, 7125]",1.0
Lianyuan,27.6961,111.6659,China,1162928.0,0.48338813496160155,1.948937617202736,[10942],0.0
Rongcheng,29.8239,112.9019,China,1162770.0,0.5205252507855368,1.9705098867573858,[6352],0.0
Kaiyuan,36.0656,113.8153,China,1160000.0,0.6294634667072669,1.986451724145102,[6343],0.0
Nay Pyi Taw,19.8028,96.1583,Burma,1160242.0,0.3456240611139331,1.6782789381204632,[6949],0.0
Dakar,14.7319,-17.4572,Senegal,1146053.0,0.25712016007455263,-0.3046856181791541,[1084],1.0
Zhuji,29.7169,120.2314,China,1157938.0,0.5186577484859028,2.09843379428231,[6394],0.0
Zapopan,20.7167,-103.4,Mexico,1155790.0,0.3615746251479093,-1.8046704465621368,[1859],1.0
Leiyang,26.4179,112.8457,China,1151554.0,0.46107933646260996,1.969529011717765,[10942],0.0
Dadukou,26.5849,101.7149,China,1144000.0,0.46399403631344055,1.7752599033367804,[6435],0.0
Quetta,30.192,67.007,Pakistan,1140000.0,0.526949807762128,1.1694927718838404,[2221],1.0
Amritsar,31.6167,74.85,India,1132383.0,0.5518155136152912,1.3063789451177557,[3081],1.0
Callao,-12.0611,-77.1333,Peru,1129854.0,-0.21050590641228809,-1.3462300479285423,[2789],0.0
Alīgarh,27.88,78.08,India,1131160.0,0.48659779545601906,1.3627530799571725,[3079],0.0
Yingchuan,34.1511,113.4733,China,1131896.0,0.5960491381778354,1.9804826981032815,[3375],0.0
Tegucigalpa,14.0942,-87.2067,Honduras,1126534.0,0.2459901954345848,-1.522044044798939,[1776],1.0
Ciudad Nezahualcóyotl,19.41,-99.03,Mexico,1109363.0,0.3387684078120994,-1.7283995582499845,[1824],0.0
Tripoli,32.8752,13.1875,Libya,1126000.0,0.5737804822516398,0.2301652951067522,"[1157, 5698]",1.0
Rostov,47.2333,39.7167,Russia,1125299.0,0.8243766015822377,0.6931871830268319,[2964],1.0
Nezahualcóyotl,19.4,-98.9889,Mexico,1110565.0,0.3385938748868999,-1.7276822279274149,[1824],0.0
Bhiwandi,19.3,73.0667,India,1125898.0,0.3368485456349056,1.2752544885669408,[2997],0.0
Zhoushan,30.0162,122.0988,China,1121261.0,0.523881518937122,2.1310260727340524,[6395],1.0
Tbilisi,41.7225,44.7925,Georgia,1118035.0,0.7281949971633341,0.78177660519956,[3973],1.0
Ufa,54.7333,55.9667,Russia,1115560.0,0.9552762954818124,0.9768031864759105,"[2992, 11993]",1.0
Fès,34.0433,-5.0033,Morocco,1112072.0,0.5941676732441856,-0.0873240584650323,[7910],0.0
Biên Hòa,10.9575,106.8426,Vietnam,1104000.0,0.19124445278727864,1.8647551513912937,[3205],0.0
Mexicali,32.6633,-115.4678,Mexico,1102342.0,0.5700821295666638,-2.0152932900343083,[1820],1.0
Gwalior,26.215,78.1931,India,1101981.0,0.4575380634103135,1.3647270473411781,[3094],1.0
Ankang,32.6877,109.0235,China,1100000.0,0.5705079899041504,1.9028190370480378,[6362],1.0
Ikare,7.5304,5.76,Nigeria,1099931.0,0.131430273992181,0.10053096491487337,[261],0.0
Hegang,47.3139,130.2775,China,1100000.0,0.825783336959345,2.2737713162669126,[6411],0.0
Salt Lake City,40.7777,-111.9306,United States,1098526.0,0.7117051263904918,-1.953557503732765,"[3536, 9093]",1.0
Bhilai,21.2167,81.4333,India,1097000.0,0.3703012714078809,1.4212792057642984,[3020],0.0
Yuyao,30.0372,121.1546,China,1095000.0,0.5242480380800407,2.1145466739367222,[3387],0.0
N’Djamena,12.11,15.05,Chad,1092066.0,0.21135937241651329,0.26267205242514663,[999],0.0
Hanchuan,30.652,113.8274,China,1092700.0,0.5349783223213019,1.9866629089845935,[3376],0.0
Gongzhuling,43.5036,124.8088,China,1092692.0,0.7592810564706052,2.178324495463099,[4380],0.0
Copenhagen,55.6786,12.5635,Denmark,1085000.0,0.9717748929009148,0.2192744405743076,"[609, 617]",1.0
Irbid,32.5556,35.85,Jordan,1088100.0,0.5682024099622659,0.6257005368399672,[2175],0.0
Hāora,22.59,88.31,India,1077075.0,0.39426987802551905,1.5413002624361924,[3043],0.0
Cologne,50.9422,6.9578,Germany,1085664.0,0.8891091182094554,0.12143651869526145,[344],1.0
Krasnoyarsk,56.0167,92.8667,Russia,1083865.0,0.9776758511019076,1.6208296804618179,"[4374, 7768]",1.0
Yicheng,31.3697,119.8239,China,1082929.0,0.5475045503628653,2.0913215775804335,[9857],0.0
Mizhou,36.0,119.4167,China,1081960.0,0.6283185307179586,2.0842145968663126,[11713],0.0
Nashville,36.1715,-86.7843,United States,1081903.0,0.631311770385129,-1.514671774038515,"[3690, 13607]",1.0
Yerevan,40.1814,44.5144,Armenia,1075800.0,0.7012977280608494,0.7769228445497639,"[3962, 3964]",1.0
Rānchi,23.3556,85.3347,India,1073440.0,0.40763211877878763,1.489371481201605,[3063],0.0
Nur-Sultan,51.1333,71.4333,Kazakhstan,1078362.0,0.8924444424100165,1.2467462805648655,[2910],0.0
Nouakchott,18.0783,-15.9744,Mauritania,1077169.0,0.3155258581632909,-0.27880587603058216,[1094],0.0
Vereeniging,-26.6736,27.9319,South Africa,1074000.0,-0.46554214335995947,0.4875036213378041,[870],1.0
Richmond,37.5295,-77.4756,United States,1075798.0,0.6550133416272119,-1.3522043099581187,"[3608, 7777, 10139]",1.0
São Luís,-2.53,-44.3028,Brazil,1073893.0,-0.04415683007545653,-0.7732297278525438,[2616],0.0
San Pedro Sula,15.5,-88.0333,Honduras,1073824.0,0.27052603405912107,-1.5364709363959241,[1772],1.0
Taixing,32.1724,120.0142,China,1073921.0,0.5615143082686237,2.0946429391469787,[4109],0.0
Memphis,35.1046,-89.9773,United States,1066967.0,0.6126908525956014,-1.5704001370546938,"[3473, 11099]",1.0
Goyang,37.6564,126.835,"Korea, South",1061929.0,0.6572281644479927,2.213688356767008,6032,0.0
Bezwāda,16.5167,80.6167,India,1048240.0,0.28827079656414745,1.4070268470925125,[3134],0.0
Edmonton,53.5344,-113.4903,Canada,1062643.0,0.9343515430796523,-1.9807794040761206,"[49, 165]",1.0
Xishan,27.6609,113.4946,China,1060000.0,0.48277377906489954,1.9808544532339565,[3371],0.0
Barquisimeto,10.0678,-69.3467,Venezuela,1059092.0,0.1757162584322851,-1.2103282403927518,[2824],1.0
Sendai,38.2683,140.8694,Japan,1058070.0,0.6679078341409461,2.4586348453089,[2347],1.0
Voronezh,51.6717,39.2106,Russia,1047549.0,0.901841295102754,0.6843540716824885,[2987],1.0
Perm,58.0139,56.2489,Russia,1048005.0,1.0125335669227384,0.9817285056250384,[2973],1.0
Changwon,35.2281,128.6811,"Korea, South",1046054.0,0.6148463342218143,2.245908880088075,6070,0.0
Zhongwei,37.5139,105.1884,China,1046000.0,0.6547410702639008,1.8358839149048034,[8043],1.0
Shouguang,36.8833,118.7333,China,1039205.0,0.6437350240008245,2.0722870167581835,[6388],0.0
Bogor,-6.6,106.8,Indonesia,1030720.0,-0.11519173063162574,1.8640116411299439,[3900],0.0
Raleigh,35.8325,-78.6435,United States,1038738.0,0.6253951042208682,-1.3725880102921606,[3626],0.0
Cartagena,10.4236,-75.5253,Colombia,1036412.0,0.18192613991088094,-1.3181651535564733,[2714],1.0
Chandīgarh,30.7353,76.7911,India,1026459.0,0.5364321815882132,1.3402575312282177,[3089],0.0
Bishkek,42.8667,74.5667,Kyrgyzstan,1027200.0,0.7481650544646533,1.3014344273468557,[2912],1.0
Amsterdam,52.35,4.9166,Netherlands,1031000.0,0.9136798634190315,0.0858108580035532,[580],1.0
Matola,-25.9667,32.4667,Mozambique,1032197.0,-0.45320441087761154,0.566650812257243,[979],0.0
Ogbomoso,8.1333,4.25,Nigeria,1032000.0,0.1419528640524548,0.07417649320975901,[267],0.0
Ashgabat,37.95,58.3833,Turkmenistan,1031992.0,0.6623524511318482,1.0189808131796054,[2976],0.0
E’zhou,30.3972,114.8842,China,1031000.0,0.5305312233872204,2.00510754851967,[3376],0.0
Maceió,-9.6658,-35.735,Brazil,1029129.0,-0.16870003483926793,-0.6236934082001736,[2590],0.0
Niamey,13.5086,2.1111,Niger,1026848.0,0.235769547334906,0.03684564583885229,[280],1.0
Managua,12.15,-86.2667,Nicaragua,1028808.0,0.21205750411731106,-1.5056379498301924,[1863],1.0
Patam,1.0678,104.0167,Indonesia,1029808.0,0.01863662575279545,1.8154338920591857,[3903],0.0
Tekirdağ,40.9833,27.5167,Turkey,1029927.0,0.7152935233325921,0.4802570142835237,[6784],0.0
Linhai,28.8523,121.1409,China,1028813.0,0.5035676317731599,2.1143075638291986,[6384],0.0
Shubrā al Khaymah,30.1286,31.2422,Egypt,1025569.0,0.5258432690163636,0.5452792555665724,[11810],0.0
Monrovia,6.3106,-10.8047,Liberia,1021762.0,0.11014074777635416,-0.18857758969023133,"[1062, 1063]",1.0
Wafangdian,39.6271,121.9972,China,1024876.0,0.6916233680170449,2.1292528182140265,[8974],0.0
Zhongxiang,31.169,112.5853,China,1022514.0,0.5440016745541126,1.964984174345572,[6360],0.0
Shymkent,42.3,69.6,Kazakhstan,1018974.0,0.7382742735936013,1.2147491593880533,[2914],0.0
New Orleans,30.0687,-89.9288,United States,1020886.0,0.524797816794419,-1.5695536523674765,"[3768, 3861, 9188]",1.0
Volgograd,48.7,44.4833,Russia,1015586.0,0.8499753457212386,0.7763800471523936,[2967],1.0
Port-au-Prince,18.5425,-72.3386,Haiti,987310.0,0.32362767655104857,-1.26254674628317,[1897],0.0
Mysore,12.3086,76.6531,India,1014227.0,0.21482559631097406,1.3378489768604653,[7774],1.0
Odesa,46.4775,30.7326,Ukraine,1010783.0,0.8111854030956644,0.5363850576984094,[12619],1.0
Kathmandu,27.7167,85.3667,Nepal,975453.0,0.48374767278751235,1.4899299865622433,[3125],1.0
Raipur,21.2379,81.6337,India,1010087.0,0.3706712812093037,1.4247768455852952,[3020],1.0
Nice,43.7034,7.2663,France,1006402.0,0.7627682243160898,0.12682085943766397,[1354],1.0
Arequipa,-16.3988,-71.5369,Peru,1008290.0,-0.28621305337604613,-1.2485544416699317,[2802],1.0
Port Harcourt,4.75,7.0,Nigeria,1005904.0,0.08290313946973066,0.12217304763960307,[275],0.0
Rotterdam,51.92,4.48,Netherlands,1005000.0,0.9061749476354559,0.07819075048934597,[591],1.0
Louisville,38.1663,-85.6485,United States,1005654.0,0.6661275983039118,-1.4948483243943633,"[3600, 4014]",1.0
Zaoyang,32.1287,112.7581,China,1004741.0,0.5607515993855022,1.968000103293018,[6360],0.0
Shuizhai,33.4433,114.8994,China,1003698.0,0.5836956977322196,2.0053728385659726,[7503],0.0
Kota,25.18,75.83,India,1001694.0,0.43947390565217215,1.3234831717873001,[3102],1.0
Abu Dhabi,24.4781,54.3686,United Arab Emirates,1000000.0,0.427223439632424,0.948911079699789,"[2179, 2180, 2184]",1.0
Stockholm,59.3294,18.0686,Sweden,972647.0,1.0354933732327238,0.31535656122584743,"[696, 699, 737, 738]",1.0
Ottawa,45.4247,-75.695,Canada,989567.0,0.7928105767306682,-1.3211269772971077,"[100, 11767, 11768]",1.0
Asmara,15.3333,38.9167,Eritrea,963000.0,0.2676165701960465,0.6792245490108773,[3967],1.0
Freetown,8.4833,-13.2331,Sierra Leone,951000.0,0.14806151643443496,-0.23096116524566163,"[1059, 7924]",1.0
Jerusalem,31.7833,35.2167,Israel,919438.0,0.5547232321491138,0.6146473666870871,[1592],0.0
Panama City,9.0,-79.5,Panama,880691.0,0.15707963267948966,-1.387536755335492,[1871],1.0
Lomé,6.1319,1.2228,Togo,837437.0,0.10702184440304029,0.021341886093386664,[298],0.0
Libreville,0.3901,9.4544,Gabon,797003.0,0.00680852941202988,0.1650104088005519,[970],1.0
Zagreb,45.8,15.95,Croatia,790017.0,0.7993607974134029,0.27838001569309556,[1208],1.0
Dushanbe,38.5731,68.7864,Tajikistan,780000.0,0.6732275977010247,1.2005491605938274,[2979],1.0
Lilongwe,-13.9833,33.7833,Malawi,781538.0,-0.24405462529412308,0.5896298171890003,[1016],1.0
Cotonou,6.4,2.52,Benin,762000.0,0.1117010721276371,0.0439822971502571,[245],1.0
Vientiane,17.9667,102.6,Laos,760000.0,0.3135780707180652,1.790707812546182,[3120],1.0
Colombo,6.9167,79.8333,Sri Lanka,752993.0,0.12071918837269179,1.393353937732389,"[3024, 3027]",1.0
Kigali,-1.9536,30.0606,Rwanda,745261.0,-0.034096752266961225,0.5246564451250074,[1165],1.0
Pretoria,-25.7464,28.1881,South Africa,741651.0,-0.4493594505354681,0.4919751548814136,[871],1.0
Bangui,4.3732,18.5628,Central African Republic,734350.0,0.07632673884821602,0.3239819783892034,[888],1.0
Winnipeg,49.8844,-97.1464,Canada,705244.0,0.8706470253818593,-1.6955245364594194,"[22, 160]",1.0
Quebec City,46.8139,-71.2081,Canada,705103.0,0.8170566906993734,-1.2428157990893742,[111],0.0
Riga,56.9475,24.1069,Latvia,698529.0,0.9939213757794708,0.420744777449021,"[3953, 11685]",1.0
Oslo,59.9111,10.7528,Norway,693494.0,1.0456459534915747,0.18767176380844627,"[644, 4351]",1.0
Chisinau,47.0056,28.8575,Moldova,685900.0,0.8204024868754466,0.5036583888942637,[1735],1.0
Athens,37.9794,23.7161,Greece,664046.0,0.6628655779319343,0.4139240307322272,"[3941, 3991]",1.0
Bujumbura,-3.3825,29.3611,Burundi,658859.0,-0.059035761948708194,0.512447867007307,[1120],1.0
Helsinki,60.1756,24.9342,Finland,642045.0,1.0502623493630998,0.43518388635077015,"[420, 421, 7725]",1.0
Skopje,41.9833,21.4333,Macedonia,640000.0,0.7327468158525353,0.3740816545677006,[1737],1.0
Kuwait City,29.375,47.98,Kuwait,637411.0,0.5126904677733343,0.8374089751068793,[2176],0.0
Kingston,17.9714,-76.7931,Jamaica,580000.0,0.31366010119290894,-1.3402924378132575,"[1779, 1782]",1.0
Vilnius,54.6833,25.2833,Lithuania,574147.0,0.9544036308558153,0.4412768307694823,[3959],1.0
San Salvador,13.6989,-89.1914,El Salvador,567698.0,0.2390909089014512,-1.5566835944632704,"[1892, 1893]",1.0
Djibouti,11.595,43.1481,Djibouti,562000.0,0.20237092676874252,0.7530764109797653,[4119],1.0
Lisbon,38.7452,-9.1604,Portugal,506654.0,0.6762313093437069,-0.15987914079968854,[1638],1.0
Kitchener,43.4186,-80.4728,Canada,470015.0,0.75779752660641,-1.404515318298893,[79],0.0
Tallinn,59.4372,24.745,Estonia,434562.0,1.0373748381663737,0.43188172340599684,[7724],1.0
Cape Town,-33.925,18.425,South Africa,433688.0,-0.5921029487390762,0.32157691467995525,[797],1.0
Bratislava,48.1447,17.1128,Slovakia,429564.0,0.8402835323849139,0.29867470423528564,[1745],1.0
Tirana,41.33,19.82,Albania,418495.0,0.7213445798492564,0.34592425774527613,[1190],1.0
Canberra,-35.2931,149.1269,Australia,426704.0,-0.6159807982356108,2.602755408292332,[3355],1.0
Wellington,-41.2889,174.7772,New Zealand,418500.0,-0.7206272495266867,3.050437597416633,[2042],1.0
Beirut,33.8869,35.5131,Lebanon,361366.0,0.5914379782940664,0.6198205225899983,[2177],1.0
Dodoma,-6.25,35.75,Tanzania,410956.0,-0.1090830782496456,0.6239552075879728,[1178],1.0
Halifax,44.6475,-63.5906,Canada,403131.0,0.7792458777841683,-1.1098653433187062,"[23, 73]",1.0
Bissau,11.8592,-15.5956,Guinea-Bissau,395954.0,0.20698208665251153,-0.27219456882402765,[5665],1.0
Juba,4.85,31.6,South Sudan,372410.0,0.08464846872172498,0.5515240436302081,[1173],1.0
Port Moresby,-9.4789,147.1494,Papua New Guinea,364125.0,-0.1654380144672905,2.5682415223341444,[5],1.0
Yamoussoukro,6.8161,-5.2742,Côte D’Ivoire,355573.0,0.11896338714518549,-0.09205215540868494,7594,0.0
Victoria,48.4283,-123.3647,Canada,335696.0,0.8452332861435699,-2.1531201957350485,"[184, 4106, 13023]",1.0
Maseru,-29.31,27.48,Lesotho,330790.0,-0.5115560037595379,0.4796164784480418,"[1018, 1019]",1.0
Nicosia,35.1725,33.365,Cyprus,330000.0,0.6138759311577056,0.5823291049279081,[5780],1.0
Windhoek,-22.57,17.0836,Namibia,322500.0,-0.3939208121751202,0.2981650680937033,"[4105, 5645]",1.0
Porto-Novo,6.4833,2.6167,Benin,300000.0,0.11315493139454837,0.04567003053693562,[245],0.0
Sucre,-19.0431,-65.2592,Bolivia,300000.0,-0.33236479478653214,-1.1389879072174836,[2767],1.0
San José,9.9333,-84.0833,Costa Rica,288054.0,0.17336879058835272,-1.467530430942148,[5848],0.0
Ljubljana,46.05,14.5167,Slovenia,284355.0,0.8037241205433887,0.25336421152426086,[1569],1.0
Sarajevo,43.8667,18.4167,Bosnia And Herzegovina,275524.0,0.7656183469845966,0.32143205235203964,2010,0.0
Nassau,25.0667,-77.3333,"Bahamas, The",274400.0,0.4374964476096626,-1.3497207064325307,6326,0.0
Bloemfontein,-29.1,26.2167,South Africa,256185.0,-0.5078908123303499,0.45756773400759737,"[794, 861]",1.0
Gaborone,-24.6569,25.9086,Botswana,231626.0,-0.4303440883349898,0.45219037458220285,[881],0.0
Paramaribo,5.8667,-55.1667,Suriname,223757.0,0.10239323122675133,-0.9628405524599558,[6061],1.0
Dili,-8.5586,125.5736,Timor-Leste,222323.0,-0.1493757493611867,2.1916727735823516,6061,0.0
Pristina,42.6667,21.1667,Kosovo,204725.0,0.7446743959606645,0.3694286067818837,2010,0.0
Georgetown,6.7833,-58.1667,Guyana,200500.0,0.11839091915053135,-1.0152004300197857,"[4304, 4306]",1.0
Malabo,3.7521,8.7737,Equatorial Guinea,187302.0,0.06548649886407924,0.15312995258222648,[891],1.0
Brussels,50.8467,4.3517,Belgium,185103.0,0.8874423287738007,0.07595149305903724,[302],1.0
Male,4.175,73.5083,Maldives,133019.0,0.07286749627076325,1.2829618625437478,[3156],1.0
Podgorica,42.4397,19.2661,Montenegro,174515.0,0.7407124985586375,0.33625687901847956,[1741],1.0
Manama,26.2167,50.5831,Bahrain,157474.0,0.45756773400759737,0.8828416408655437,[2057],0.0
Port Louis,-20.1667,57.5,Mauritius,149194.0,-0.35197531426194045,1.0035643198967394,[893],0.0
New Delhi,28.7,77.2,India,142004.0,0.5009094953223726,1.3473941825396225,[3091],0.0
Bern,46.948,7.4474,Switzerland,133798.0,0.8193971772262978,0.1299816507130257,[1676],1.0
Reykjavík,64.1475,-21.935,Iceland,128793.0,1.1195850819230624,-0.3828379714249562,[18],0.0
Praia,14.9177,-23.5092,Cabo Verde,127832.0,0.2603629818247581,-0.4103129445098509,5414,0.0
Luxembourg,49.6106,6.1328,Luxembourg,122273.0,0.8658683138898988,0.10703755236630824,[629],0.0
Sri Jayewardenepura Kotte,6.9,79.9164,Sri Lanka,115826.0,0.12042771838760874,1.3948043063407962,[3027],0.0
Bridgetown,13.0975,-59.6167,Barbados,110000.0,0.22859449877995733,-1.0405077041737034,[2875],1.0
Moroni,-11.7036,43.2536,Comoros,111329.0,-0.20426635433640836,0.7549177333406193,"[912, 5614]",1.0
Thimphu,27.4833,89.6333,Bhutan,104000.0,0.47967407431335757,1.5643962044278334,[3155],1.0
Mbabane,-26.3167,31.1333,Swaziland,90138.0,-0.45931306325959176,0.5433785920111506,[887],0.0
Honiara,-9.4333,159.95,Solomon Islands,84520.0,-0.16464214432838106,2.79165413856493,[4074],1.0
Suva,-18.1333,178.4333,Fiji,88271.0,-0.31648578925188775,3.1142485801987982,[1961],0.0
Castries,14.0167,-60.9833,Saint Lucia,70000.0,0.2446375652642892,-1.064359373731458,[2893],1.0
São Tomé,0.3333,6.7333,Sao Tome And Principe,56166.0,0.0058171823968971,0.11751825452453418,2242,0.0
Port-Vila,-17.75,168.3,Vanuatu,51437.0,-0.3097959422289935,2.937389131106457,[1997],0.0
Bandar Seri Begawan,4.9167,114.9167,Brunei,50000.0,0.0858126033328052,2.005674780526568,[3272],1.0
Monaco,43.7396,7.4069,Monaco,36371.0,0.7634000335053118,0.129274792365968,2010,0.0
Gitega,-3.4264,29.9306,Burundi,41944.0,-0.05980196149033371,0.5223875170974148,[13821],1.0
Port of Spain,10.6667,-61.5167,Trinidad And Tobago,37074.0,0.18616903532247916,-1.0736689599615958,6204,0.0
Apia,-13.8333,-171.8333,Samoa,37708.0,-0.2414366314161316,-2.9990568495671726,[4290],1.0
Vaduz,47.1415,9.5215,Liechtenstein,36281.0,0.8227743893289069,0.1661815247286401,2010,0.0
Banjul,13.4531,-16.5775,"Gambia, The",31356.0,0.23480088960004913,-0.28933195674935996,7618,0.0
Tarawa,1.3382,173.0176,Kiribati,28802.0,0.023355996050188118,3.019726783898541,[1965],1.0
Victoria,-4.6236,55.4544,Seychelles,26450.0,-0.08069704329520981,0.9678618647179434,[994],0.0
Majuro,7.1167,171.3667,Marshall Islands,25400.0,0.12420984687668045,2.990913143277367,[2249],1.0
Kingstown,13.1667,-61.2333,Saint Vincent And The Grenadines,25418.0,0.2298022666223374,-1.0687226968614438,6204,0.0
Nuku‘alofa,-21.1347,-175.2083,Tonga,24571.0,-0.36887010142124554,-3.057961711821981,[1963],0.0
Saint John’s,17.1211,-61.8447,Antigua And Barbuda,21926.0,0.29881956656320113,-1.0793936399081372,3349,0.0
Andorra la Vella,42.5,1.5,Andorra,22151.0,0.7417649320975901,0.026179938779914945,2010,0.0
Belmopan,17.25,-88.7675,Belize,17222.0,0.3010692959690218,-1.5492851437640665,[8227],1.0
Roseau,15.3,-61.3833,Dominica,16582.0,0.26703537555513246,-1.0713406907394352,[2876],0.0
Basseterre,17.2983,-62.7342,Saint Kitts And Nevis,13220.0,0.3019122899977351,-1.0949183436046268,3349,0.0
Pago Pago,-14.274,-170.7046,American Samoa,12576.0,-0.24912829742967058,-2.9793573182999125,[1970],1.0
Valletta,35.8978,14.5125,Malta,6444.0,0.6265348042224204,0.2532909076956771,[1606],0.0
Palikir,6.9178,158.185,"Micronesia, Federated States Of",6227.0,0.12073838699446372,2.7608490772672303,892,0.0
Funafuti,-8.5167,179.2167,Tuvalu,6025.0,-0.14864445640460106,3.1279214895589216,[4077],1.0
Lobamba,-26.4167,31.1667,Swaziland,5800.0,-0.46105839251158603,0.5439615319813167,[887],0.0
Saint George’s,12.0444,-61.7417,Grenada,4315.0,0.21021443642720503,-1.077595950778583,[2882],0.0
San Marino,43.932,12.4484,San Marino,4040.0,0.7667580469861489,0.2172655666052621,2010,0.0
Al Quds,31.7764,35.2269,West Bank,,0.5546028044307261,0.6148253902707905,[2174],0.0
Capitol Hill,15.2137,145.7546,Northern Mariana Islands,2500.0,0.2655291564106613,2.5438976699273272,[2244],0.0
Hagåtña,13.4745,144.7504,Guam,1051.0,0.23517439005997595,2.5263710735788,[2246],0.0
Ngerulmud,7.5006,134.6242,Palau,,0.1309101658750867,2.3496355428633504,[2256],0.0
Bareilly,28.364,79.415,India,1000000.0,0.49504518903567163,1.386053225471297,[3088],1.0
Quảng Hà,16.06,108.25,Vietnam,1000000.0,0.2802998778702893,1.8893189152838616,[3196],0.0
Kitaku,33.8704,130.82,Japan,997536.0,0.5911499989674873,2.283239727458982,[2302],0.0
Jodhpur,26.2918,73.0168,India,995000.0,0.4588784762758451,1.2743835692701957,[3097],1.0
Xingcheng,24.1681,115.6669,China,993000.0,0.42181291895124157,2.0187682405750293,[6354],0.0
Dongtai,32.8534,120.3037,China,990306.0,0.5734000004747051,2.099695667331502,[8876],0.0
Joinvile,-26.32,-48.8399,Brazil,988000.0,-0.45937065912490754,-0.8524170613447786,[2576],0.0
Yingcheng,24.1876,113.4042,China,986400.0,0.42215325815538046,1.9792766755901534,[3370],0.0
Dnipro,48.45,34.9833,Ukraine,983836.0,0.8456120225912527,0.6105737682129323,[2941],0.0
Glasgow,55.8609,-4.2514,United Kingdom,985290.0,0.9749566281273004,-0.07420092781928693,"[534, 8405]",1.0
Chiba,35.6,140.1,Japan,980203.0,0.6213372137099813,2.4452062820440554,[2355],0.0
Danyang,31.9948,119.575,China,980662.0,0.5584146035170817,2.08697745307222,[4109],0.0
Natal,-6.9838,-60.2699,Brazil,980588.0,-0.12189030430077998,-1.0519081948477305,"[2597, 13723]",1.0
Naples,40.8333,14.25,Italy,972212.0,0.7126755294546006,0.24870941840919197,[1561],1.0
Zhaodong,46.0635,125.9773,China,980000.0,0.803959739992408,2.1987186677726527,[3400],0.0
Xibeijie,39.737,98.5049,China,977600.0,0.6935414848649868,1.7192348343477624,[6432],0.0
Kirkuk,35.4667,44.4,Iraq,975000.0,0.619010689817073,0.7749261878854823,[6832],1.0
Huilong,31.8131,121.6574,China,972525.0,0.555243340266208,2.1233221894157492,[3391],0.0
Tongjin,37.2361,127.2011,"Korea, South",971327.0,0.6498925456018606,2.220078007158559,6070,0.0
Oklahoma City,35.4676,-97.5136,United States,972943.0,0.6190263977803407,-1.7019333854727425,"[3525, 3863, 9781]",1.0
Toulouse,43.6045,1.444,France,968638.0,0.7610420936858675,0.025202554398798118,"[1266, 1273, 1286]",1.0
Denizli,37.7731,29.0878,Turkey,963464.0,0.65926496368507,0.5076778821616066,[1699],1.0
Dispur,26.15,91.77,India,957352.0,0.45640359939651715,1.601688654555196,[6173],0.0
Coimbatore,11.0,76.9667,India,959823.0,0.19198621771937624,1.3433223293947196,[3135],1.0
Luocheng,22.7645,111.5745,China,959006.0,0.39731547757024915,1.9473423862664132,[6744],0.0
Guwāhāti,26.1667,91.7667,India,957352.0,0.4566950693816002,1.6016310586898803,[6173],0.0
Shima,24.4475,117.8118,China,956400.0,0.42668936888131376,2.056203807701056,[3383],0.0
Sŏngnam,37.4386,127.1378,"Korea, South",948757.0,0.6534268373371491,2.218973213742047,6070,0.0
Solāpur,17.6833,75.9167,India,951558.0,0.30863180761791326,1.3249963722487792,[3021],0.0
Tangier,35.7847,-5.8125,Morocco,947952.0,0.6245608368384149,-0.10144726277217041,[1080],0.0
Anqiu,36.3619,119.1072,China,947723.0,0.634634877280926,2.0788128028313904,[6388],0.0
Feicheng,36.186,116.772,China,946627.0,0.631564843126668,2.0380558741388186,[4108],0.0
Taishan,22.2486,112.785,China,941095.0,0.3883113239592104,1.9684695968618044,[6355],0.0
Meishan,34.1736,112.839,China,936000.0,0.5964418372595343,1.9694120746578816,[4148],0.0
Kisangani,0.5153,25.1911,Congo (Kinshasa),935977.0,0.00899368163552678,0.43966763719914354,[1031],1.0
Khartoum North,15.6333,32.6333,Sudan,936349.0,0.2728525579520295,0.5695585307910656,[1175],0.0
Aguascalientes,21.876,-102.296,Mexico,934424.0,0.38180822716627955,-1.7854020116201195,[1785],1.0
Marrakech,31.6295,-7.9811,Morocco,928850.0,0.5520389157595464,-0.13929647293091943,[1075],1.0
Nada,19.5,109.5833,China,932356.0,0.34033920413889424,1.912589390200702,[13193],0.0
Donetsk,48.0089,37.8042,Ukraine,929063.0,0.8379133752607056,0.6598077610824403,[2940],1.0
Taihecun,45.768,131.0063,China,930000.0,0.7988022920527648,2.2864912758554476,[8417],0.0
Wuchuan,21.4571,110.7659,China,927275.0,0.3744970429296753,1.933229653934787,[6357],0.0
Trujillo,-8.1119,-79.0289,Peru,919899.0,-0.141579363592528,-1.3793145092293466,[2804],1.0
Cebu City,10.3,123.9,Philippines,922611.0,0.17976891295541594,2.1624629432209743,[4206],0.0
Taihe,30.8706,105.3784,China,924531.0,0.5387936120661615,1.8392000404835926,[6401],0.0
Olinda,-8.0,-34.85,Brazil,921840.0,-0.13962634015954636,-0.6082472443200239,[2610],0.0
Bridgeport,41.1918,-73.1953,United States,924449.0,0.7189325348230002,-1.2774989819850056,[3579],0.0
Trichinopoly,10.8269,78.6928,India,916857.0,0.18896505278417408,1.3734484576133938,[3152],0.0
Xin’an,34.3662,118.3369,China,920628.0,0.5998033413988753,2.0653685316032777,[6383],0.0
Padang,-0.9556,100.3606,Indonesia,914970.0,-0.016678366332057812,1.7516229092770212,"[3278, 8807]",1.0
Qingzhou,36.6967,118.4797,China,914047.0,0.6404782396166031,2.0678608617751255,[6388],0.0
Buffalo,42.9016,-78.8487,United States,914341.0,0.7487741743735993,-1.3761694259172528,[3820],1.0
Xinyi,22.3559,110.9369,China,913708.0,0.3901840622466003,1.9362141669556974,[6744],0.0
Lichuan,30.2965,108.9378,China,913700.0,0.5287736768304621,1.9013232898790786,[6358],0.0
Daye,30.1003,114.9699,China,909724.0,0.5253493408380492,2.006603295688629,[3376],0.0
Fort Worth,32.7811,-97.3473,United States,909585.0,0.5721381274255132,-1.6990309029266761,"[3723, 8342]",1.0
Zhuanghe,39.6896,122.9664,China,905852.0,0.6927141987995414,2.146168549324355,[8974],0.0
Hartford,41.7661,-72.6834,United States,905152.0,0.7289559607172037,-1.2685646415440466,[3780],1.0
Ad Dammām,26.4333,50.1,Saudi Arabia,903312.0,0.4613481171674171,0.8744099552491591,[2065],0.0
Bucheon,37.4989,126.7831,"Korea, South",867678.0,0.6544792708761016,2.2127825308852227,6070,0.0
Lhasa,29.65,91.1,China,902500.0,0.5174901232163187,1.589994948566834,[4097],1.0
Homs,34.7333,36.7167,Syria,900492.0,0.6062104450829464,0.6408273054670021,[2239],0.0
Jiaozhou,36.2481,119.9625,China,900500.0,0.6326486925921566,2.0937406039236977,[3390],0.0
Mérida,20.97,-89.62,Mexico,892363.0,0.3659955441432109,-1.5641640756373183,[1819],0.0
Dengtalu,36.08,114.35,China,887000.0,0.6297147941195541,1.9957839996555158,[8407],0.0
Zaria,11.0667,7.7,Nigeria,889000.0,0.1931503523304565,0.13439035240356337,[278],1.0
Hubli,15.36,75.125,India,890000.0,0.268082573106329,1.31117860056074,[6168],1.0
Abeokuta,7.15,3.35,Nigeria,888924.0,0.12479104151759457,0.05846852994181004,[273],0.0
Tucson,32.1545,-110.8782,United States,888486.0,0.5612018943325167,-1.9351896586847768,"[3562, 3636, 7979, 11017]",1.0
Krasnodar,45.0333,38.9833,Russia,881476.0,0.7859793580383624,0.6803869382927055,[2960],1.0
Natal,-5.795,-35.2089,Brazil,877662.0,-0.10114183015307139,-0.6145112310054315,"[2597, 13723]",1.0
Novo Hamburgo,-29.7096,-51.14,Brazil,876990.0,-0.5185303394505073,-0.8925613794699001,[2542],0.0
Chihuahua,28.6353,-106.0889,Mexico,878062.0,0.49978026729633224,-1.8516006048190121,[1797],1.0
Klang,3.0333,101.45,Malaysia,878000.0,0.052941072200744003,1.7706365261482473,[3408],0.0
Turin,45.0667,7.7,Italy,870952.0,0.7865622980085285,0.13439035240356337,[1522],1.0
Jos,9.9333,8.8833,Nigeria,873943.0,0.17336879058835272,0.1550428334424123,[268],1.0
Laiyang,36.9758,120.7136,China,874127.0,0.6453494535589193,2.106849771935427,[3392],0.0
Jalandhar,31.3256,75.5792,India,873725.0,0.5467348601627358,1.3191058860232983,[13502],0.0
Campo Grande,-20.4686,-54.6222,Brazil,874210.0,-0.3572444632737113,-0.9533372346828467,[2538],1.0
Sale,34.05,-6.8167,Morocco,850403.0,0.5942846103040692,-0.11897385912069747,[1072],0.0
Barinas,8.6333,-70.2167,Venezuela,873962.0,0.15067951031242646,-1.2255126048851024,[2822],1.0
Marseille,43.2964,5.37,France,870018.0,0.7556647342604729,0.0937241808320955,[1353],1.0
Kaifeng Chengguanzhen,34.85,114.35,China,872000.0,0.6082472443200239,1.9957839996555158,[3375],0.0
Eskişehir,39.7767,30.5206,Turkey,871187.0,0.6942343805780284,0.5326849596841814,[6780],0.0
Gaomi,36.3833,119.75,China,868715.0,0.6350083777408528,2.0900317792632097,[3390],0.0
Ipoh,4.6,101.07,Malaysia,866772.0,0.08028514559173916,1.7640042749906688,[3302],1.0
Hai’an,32.532,120.4604,China,866337.0,0.5677905122587952,2.1024305982693776,[12053],0.0
Liverpool,53.4,-2.9833,United Kingdom,864122.0,0.9320058205649719,-0.05206840757474683,[491],1.0
Zamboanga City,6.9167,122.0833,Philippines,861799.0,0.12071918837269179,2.130755546699993,[2404],0.0
Oran,35.6969,-0.6331,Algeria,852000.0,0.6230284377551638,-0.0110496794943761,"[229, 231]",1.0
Southampton,50.9,-1.4,United Kingdom,855569.0,0.8883725892651138,-0.024434609527920613,[495],1.0
Weichanglu,37.1792,119.9333,China,859424.0,0.6488994532574758,2.0932309677821155,[6388],0.0
Pekanbaru,0.5333,101.45,Indonesia,855221.0,0.00930784090088576,1.7706365261482473,[3273],1.0
Portsmouth,50.8058,-1.0872,United Kingdom,855679.0,0.886728489109735,-0.01897521962768235,[7805],0.0
Leping,28.9632,117.1203,China,852800.0,0.5055032019136216,2.044134855923515,[6380],0.0
Erbil,36.1911,44.0094,Iraq,852500.0,0.6316538549185198,0.7681089318271924,[3989],1.0
Kermānshāh,34.3167,47.0686,Iran,851405.0,0.5989394034191381,0.821502044304203,[2114],0.0
Hailun,47.4585,126.9632,China,850000.0,0.8283070830577289,2.2159258688680645,[13479],0.0
Yangchun,22.1667,111.7833,China,849504.0,0.38688189930182704,1.9509866337445774,[6744],0.0
Macheng,31.1817,115.0189,China,849090.0,0.5442233313691158,2.007458507022106,[3376],0.0
Ilorin,8.5,4.55,Nigeria,847582.0,0.14835298641951802,0.079412480965742,[267],1.0
Teresina,-5.0949,-42.8042,Brazil,847430.0,-0.0889227800598591,-0.7470742236821568,[2623],1.0
Omaha,41.2627,-96.0522,United States,847819.0,0.7201699732626643,-1.6764271437840974,"[3454, 3836]",1.0
Yuci,37.6804,112.73,China,840000.0,0.6576470434684714,1.9675096657732078,[3369],0.0
Saratov,51.5333,46.0,Russia,845300.0,0.8994257594179937,0.8028514559173916,[4363],1.0
Iguaçu,-22.74,-43.47,Brazil,844583.0,-0.3968878719035105,-0.758694625841935,[7675],0.0
El Paso,31.8479,-106.4309,United States,843386.0,0.5558507148459021,-1.8575696308608327,"[3559, 3595]",1.0
Denpasar,-8.6667,115.2167,Indonesia,834881.0,-0.15126245028259258,2.010910768282551,[3940],1.0
Dehui,44.5323,125.6965,China,839786.0,0.7772352584858708,2.1938177832330523,[4380],0.0
Naucalpan de Juárez,19.4753,-99.2378,Mexico,833779.0,0.33990810781365166,-1.7320263524356287,[1824],0.0
Bhubaneshwar,20.2644,85.8281,India,837737.0,0.3536805009411389,1.4979829357309453,[3042],0.0
Tongchuan,34.9057,108.9422,China,835600.0,0.6092193927133848,1.9014000843661665,[3379],0.0
Cheongju,36.6372,127.4897,"Korea, South",833276.0,0.6394397687116665,2.2251150273798146,6070,0.0
Warri,5.5167,5.75,Nigeria,830106.0,0.09628457884477118,0.10035643198967395,[6972],0.0
Pointe-Noire,-4.7889,11.8653,Congo (Brazzaville),829134.0,-0.08358207254875645,0.20708855173688318,[886],0.0
Rongjiawan,29.3801,113.1,China,826000.0,0.512779479565186,1.9739673840055867,[3371],0.0
San Luis Potosí,22.1511,-100.9761,Mexico,824229.0,0.38660962793851594,-1.7623654108230462,[1842],0.0
Butterworth,5.3942,100.3664,Malaysia,821652.0,0.09414655051107812,1.7517241383736368,[3297],1.0
Bhayandar,19.3,72.85,India,814655.0,0.3368485456349056,1.271472360077869,[2997],0.0
Renqiu,38.7094,116.1008,China,822455.0,0.675606481471493,2.0263412241994327,[10209],0.0
Toluca,19.2925,-99.6569,Mexico,819561.0,0.33671764594100606,-1.7393410273307368,[1850],1.0
Honolulu,21.3294,-157.846,United States,820987.0,0.3722682574748785,-2.7549324111029696,[3728],1.0
Querétaro,20.5875,-100.3928,Mexico,804663.0,0.35931965975433255,-1.752184905296163,[1838],0.0
Xindi,29.8182,113.4653,China,819446.0,0.5204257670181732,1.980343071763122,[3376],0.0
Wu’an,36.6941,114.1847,China,819000.0,0.6404328610560512,1.9928989704019693,[8407],0.0
São Bernardo do Campo,-23.6939,-46.565,Brazil,816925.0,-0.41353656763828445,-0.8127125661911595,[2618],0.0
Hermosillo,29.0989,-110.9542,Mexico,812229.0,0.5078716137085779,-1.9365161089162923,[1807],1.0
Wutong,30.6326,120.5474,China,815848.0,0.5346397284464149,2.1039490347186125,[3386],0.0
Taguig City,14.5167,121.05,Philippines,804915.0,0.25336421152426086,2.112721059539136,[2397],0.0
Saltillo,25.4333,-101.0,Mexico,807537.0,0.4438948246474738,-1.7627825445142729,[1810],1.0
Gaoyou,32.7847,119.4432,China,811800.0,0.5722009592785849,2.084677109118091,[8876],0.0
Hejian,38.4451,116.0897,China,810306.0,0.6709935762584719,2.026147492652461,[10209],0.0
Yiyang,26.4103,112.3913,China,810447.0,0.46094669143945843,1.961598235596703,[10942],0.0
Puxi,35.2125,114.735,China,809535.0,0.6145740628585032,2.002503517275694,[3375],0.0
Zijinglu,34.7513,112.9854,China,807857.0,0.6065246043483055,1.9719672366828012,[4148],0.0
Xiashi,30.5333,120.6833,China,806966.0,0.5329066164991846,2.1063209371720726,[3386],0.0
Trabzon,41.005,39.7225,Turkey,807903.0,0.7156722597802748,0.6932884121234475,[1726],1.0
João Pessoa,-7.0833,-34.8333,Brazil,801718.0,-0.12362690690651434,-0.6079557743349409,[2575],0.0
Dongyang,29.2785,120.2282,China,804398.0,0.5110062250451598,2.0983779437462466,[6394],0.0
McAllen,26.2273,-98.2471,United States,804114.0,0.4577527389083088,-1.714735375536121,[3826],0.0
Valencia,39.4667,-0.375,Spain,794288.0,0.6888238598968461,-0.006544984694978736,[1246],1.0
Qingping,34.538,113.3796,China,797200.0,0.6028018170538015,1.978847324594163,[3375],0.0
Niigata,37.9161,139.0364,Japan,796500.0,0.661760784515422,2.426642960119844,[4381],1.0
Hamamatsu,34.7167,137.7333,Japan,791770.0,0.6059207204271154,2.4038995746371064,[2321],1.0
Morelia,19.7683,-101.1894,Mexico,784776.0,0.34502192252199504,-1.7660881981175502,[1821],1.0
Pasig City,14.575,121.0833,Philippines,755300.0,0.2543817384781735,2.11330225418005,[2397],0.0
Morādābād,28.8418,78.7568,India,787000.0,0.5033843722017005,1.3745654683346702,[3108],0.0
Culiacán,24.8069,-107.3939,Mexico,785800.0,0.4329620822129813,-1.8743771515575383,[1792],0.0
Xiangxiang,27.7389,112.5223,China,787216.0,0.48413513588145507,1.9638846169168156,[14091],0.0
Malang,-7.98,112.62,Indonesia,780000.0,-0.1392772743091475,1.965589803596014,[3894],1.0
Xingyi,25.091,104.9011,China,783120.0,0.43792056261789725,1.8308695839638236,[7506],1.0
Chaohucun,31.6783,117.7353,China,782000.0,0.5528906364345197,2.0548686308232798,[3389],0.0
Fuyang,30.0533,119.9519,China,771000.0,0.5245290360896119,2.093555599022986,[7503],1.0
Antipolo,14.5842,121.1763,Philippines,776386.0,0.254542308769357,2.1149254103844046,[2397],0.0
Nottingham,52.95,-1.15,United Kingdom,768638.0,0.9241518389309975,-0.02007128639793479,[5561],1.0
Cencheng,22.9297,111.0186,China,772113.0,0.4001987614945438,1.937640100954577,[6744],0.0
Kraków,50.0614,19.9372,Poland,766739.0,0.8737362581578892,0.34796978362861347,[669],0.0
Hempstead,40.6629,-73.6089,United States,768057.0,0.7097014884092022,-1.284717663771254,[3797],0.0
Erzurum,39.9097,41.2756,Turkey,767848.0,0.696555668483181,0.7203951207361714,[1724],1.0
Al ‘Ayn,24.2075,55.7447,United Arab Emirates,766936.0,0.4225005786765273,0.972928555536483,[5937],0.0
Songzi,30.1772,111.7732,China,765911.0,0.5266914990328329,1.950810355490126,[6361],0.0
Laixi,36.8667,120.5333,China,762900.0,0.6434452993449935,2.1037029432940813,[3390],0.0
Zhongba,31.7761,104.7406,China,762140.0,0.5545975684429701,1.8280683305143728,[6400],0.0
Qingnian,36.8494,115.7061,China,760781.0,0.6431433573843985,2.019452409641811,[8407],0.0
Albuquerque,35.1053,-106.6464,United States,761195.0,0.6127030699003654,-1.8613308153988806,"[4019, 13130]",1.0
Kaduna,10.5231,7.4403,Nigeria,760084.0,0.1836627425166153,0.1298577323361341,[269],1.0
Tlalnepantla,19.5367,-99.1947,Mexico,750224.0,0.3409797399743762,-1.7312741155280191,[1824],0.0
Xinhualu,34.3962,113.7249,China,758079.0,0.6003269401744736,1.9848739465012994,[3375],0.0
Guangshui,31.6189,113.8229,China,755910.0,0.5518539108588351,1.9865843691682539,[3376],0.0
Frankfurt,50.1136,8.6797,Germany,753056.0,0.8746473200274303,0.15148934308535184,[340],1.0
Samarinda,-0.5022,117.1536,Indonesia,753370.0,-0.008765043503515523,2.044716050564429,[3921],1.0
Changhua,24.0667,120.5333,Taiwan,750000.0,0.42004315508971934,2.1037029432940813,[8055],0.0
Pietermaritzburg,-29.5833,30.4167,South Africa,750845.0,-0.5163259886052385,0.5308715625913593,[843],1.0
Hŭngnam,39.8231,127.6232,"Korea, North",751322.0,0.6950442133509538,2.2274450419312273,2508,0.0
Kolhāpur,16.7,74.2333,India,750000.0,0.291469985083053,1.2956154996207065,[3013],0.0
Ciudad Guayana,8.3596,-62.6517,Venezuela,751331.0,0.14590254414971798,-1.0934784469717314,[2856],0.0
Cúcuta,7.9075,-72.5047,Colombia,750000.0,0.1380119106014516,-1.2654457381707327,[2713],0.0
Licheng,31.4174,119.4786,China,749522.0,0.5483370724160666,2.085294955673297,[4109],0.0
Thiruvananthapuram,8.5,76.8997,India,743691.0,0.14835298641951802,1.3421529587958834,[3153],0.0
Tyumen,57.15,65.5333,Russia,744554.0,0.9974556675147593,1.1437718546972,[4111],1.0
San Cristóbal,7.7682,-72.2322,Venezuela,743924.0,0.13558066695342352,-1.2606897159590482,[2855],0.0
Zaporizhzhia,47.8378,35.1383,Ukraine,741717.0,0.8349271169105434,0.6132790285535236,[6103],0.0
Cancún,21.1606,-86.8475,Mexico,743626.0,0.3693221416975121,-1.5157748221257752,[1852],0.0
Kumamoto,32.8031,130.7078,Japan,739393.0,0.5725220998609519,2.281281468038244,[2312],1.0
Chengguan,35.4599,113.7975,China,740435.0,0.6188920074279373,1.986141055538247,[3375],0.0
Nehe,48.48,124.8738,China,740000.0,0.8461356213668509,2.179458959476895,[13479],0.0
Sokoto,13.0622,5.2339,Nigeria,732178.0,0.22797839755400331,0.09134878772013122,[276],1.0
Birmingham,33.5277,-86.7987,United States,739573.0,0.5851687556209029,-1.514923101450802,[3811],1.0
Zunhua,40.1881,117.9593,China,737011.0,0.7014146651207331,2.058778168347747,[13478],0.0
Orūmīyeh,37.55,45.1,Iran,736224.0,0.6553711341238707,0.7871434926494426,[5936],0.0
Oyo,7.8333,3.9333,Nigeria,736072.0,0.13671687629647183,0.06864903546869297,[266],0.0
Wugang,26.7345,110.6293,China,734870.0,0.46660504887442406,1.930845534176563,[13229],0.0
Shuangqiao,35.0833,112.5833,China,733000.0,0.6123190974649266,1.964949267760532,[4148],0.0
Rennes,48.1147,-1.6794,France,727357.0,0.8397599336093157,-0.02931105945799277,[1415],1.0
Sizhan,39.0099,106.3694,China,730400.0,0.680851195873736,1.8564962533708564,[4085],0.0
Langzhong,31.5833,105.972,China,728935.0,0.5512325736451251,1.8495603149234308,[6401],0.0
Bristol,51.45,-2.5833,United Kingdom,724000.0,0.8979719001510826,-0.04508709056676952,"[490, 553]",1.0
Qian’an,40.0059,118.6973,China,728160.0,0.6982346752235994,2.0716586982274654,[6429],0.0
Lviv,49.8419,24.0315,Ukraine,724314.0,0.8699052604497618,0.41942879919301734,[2945],0.0
Zouping,36.8625,117.7424,China,726722.0,0.6433719955164097,2.0549925492001715,[4108],0.0
Bremen,53.1153,8.7975,Germany,724909.0,0.9270368681845441,0.15354534094420114,[353],1.0
Reynosa,26.0922,-98.2778,Mexico,725793.0,0.45539479908886443,-1.7152711916164831,[1839],1.0
An Najaf,32.029,44.3396,Iraq,724700.0,0.5590115061212638,0.7738720090172777,[7490],0.0
Sagamihara,35.5667,139.3667,Japan,722828.0,0.6207560190690672,2.4324077826391814,[2358],0.0
Guli,28.9008,120.0284,China,723490.0,0.5044141164603771,2.094890775900762,[6394],0.0
Sarasota,27.3386,-82.5431,United States,722243.0,0.47714858288572176,-1.4406488698029314,[4067],1.0
Okayama,34.65,133.9167,Japan,720865.0,0.6047565858160352,2.33728733840549,[2327],1.0
Mississauga,43.6,-79.65,Canada,721599.0,0.7609635538695277,-1.3901547492134836,[193],0.0
Lingbao Chengguanzhen,34.5221,110.8786,China,721049.0,0.6025243097027345,1.9351966400017848,[6430],0.0
Anlu,31.2575,113.6783,China,720000.0,0.5455462909421276,1.9840606230698699,[3376],0.0
Wusong,30.9333,117.7667,China,720000.0,0.5398879335071619,2.055416664208406,[9843],0.0
Dayton,39.7797,-84.1998,United States,718353.0,0.6942867404555882,-1.4695637395207215,"[3627, 3763, 7776]",1.0
Enugu,6.4403,7.4942,Nigeria,715774.0,0.1124044398161908,0.13079846480295904,[264],1.0
George Town,5.4145,100.3292,Malaysia,708127.0,0.09450085234923297,1.7510748758918948,[3297],0.0
Jaboatão,-8.1803,-35.0014,Brazil,702621.0,-0.14277316880089216,-0.6108896728075432,[2610],0.0
Santo André,-23.6572,-46.5333,Brazil,710210.0,-0.41289603180280254,-0.8121592968182773,[2618],0.0
Xichang,27.8983,102.2706,China,712434.0,0.48691719070913403,1.7849586979901129,[3396],1.0
Soledad,10.92,-74.77,Colombia,698852.0,0.19058995431778078,-1.30498268171616,[2710],0.0
Chengxiang,31.4515,121.1043,China,709500.0,0.5489322296909965,2.113668773322969,[3391],0.0
Tolyatti,53.5167,49.4167,Russia,707408.0,0.9340426198020494,0.8624841204702818,[2993],0.0
Sahāranpur,29.964,77.546,India,705478.0,0.5229704570675808,1.353433021751523,[3111],0.0
Warangal,17.9756,79.6011,India,704570.0,0.3137334050214927,1.3893012832092584,[3140],0.0
Osasco,-23.5328,-46.7919,Brazil,694844.0,-0.4107248422133216,-0.8166727182639346,[2593],0.0
Dashiqiao,40.6328,122.5021,China,704891.0,0.7091761443043519,2.1380649856073455,[12056],0.0
Latakia,35.5236,35.7917,Syria,700000.0,0.6200037821614577,0.6246830098860544,[2239],1.0
Rochester,43.168,-77.6162,United States,703952.0,0.7534237315009121,-1.354658242886423,"[3622, 4048, 9396]",1.0
Fresno,36.7831,-119.7941,United States,703498.0,0.6419862040903261,-2.0908014694633392,[3687],1.0
Banjarmasin,-3.3333,114.5833,Indonesia,692793.0,-0.058177059956726986,1.9998558528004184,[3908],1.0
Salem,11.65,78.1667,India,693236.0,0.2033308578573394,1.3642662804186516,[3149],1.0
Changsha,22.3762,112.6877,China,699242.0,0.3905383640847552,1.966771391499614,[14091],1.0
Grenoble,45.1715,5.7224,France,687985.0,0.7883914030646186,0.09987472111612353,[1340],1.0
Shishi,24.7355,118.6434,China,693000.0,0.43171591712705737,2.0707179657606405,[6386],0.0
Guadalupe,25.6775,-100.2597,Mexico,691931.0,0.44815691868084395,-1.7498618720617587,[1825],0.0
Aracaju,-10.9111,-37.0717,Brazil,685356.0,-0.19043462001435327,-0.6470232243115819,[2522],1.0
Bauchi,10.3158,9.8442,Nigeria,693700.0,0.18004467497723103,0.1718137022248258,[13455],1.0
Hamilton,43.2567,-79.8692,Canada,693645.0,0.7549718385474312,-1.3939805109338552,[70],1.0
Łódź,51.7769,19.4547,Poland,690422.0,0.903677381475852,0.3395485699877408,[5592],0.0
Miluo Chengguanzhen,28.8049,113.0745,China,692080.0,0.5027403457077146,1.973522325046328,[3371],0.0
Gaizhou,40.4019,122.3499,China,691595.0,0.705146179061497,2.1354085944858103,[12056],0.0
Shizuoka,34.9756,138.3825,Japan,691185.0,0.6104393778605287,2.415230252141053,[2325],0.0
Mālegaon,20.55,74.55,India,690844.0,0.3586651612848347,1.3011429573617725,[3016],0.0
Karbalā’,32.6167,44.0333,Iraq,690100.0,0.5692688061352346,0.7685260655184191,[4130],0.0
Leling,37.7333,117.2167,China,689867.0,0.6585703226427764,2.0458173533224375,[4108],0.0
